,city,lat,lng,region_clusters
0,Paris,48.8566,2.3522,7
1,Nice,43.7034,7.2663,0
2,Toulouse,43.6045,1.444,6
3,Marseille,43.2964,5.37,11
4,Rennes,48.1147,-1.6794,5
5,Grenoble,45.1715,5.7224,8
6,Nantes,47.2181,-1.5528,10
7,Montpellier,43.6119,3.8772,11
8,Lyon,45.76,4.84,8
9,Rouen,49.4428,1.0886,4
10,Strasbourg,48.5833,7.7458,3
11,Nancy,48.6936,6.1846,3
12,Metz,49.1203,6.1778,3
13,Brest,48.39,-4.49,5
14,Mulhouse,47.75,7.34,3
15,Limoges,45.8353,1.2625,2
16,Orléans,47.9025,1.909,7
17,Bordeaux,44.84,-0.58,9
18,Le Havre,49.49,0.1,4
19,Lille,50.6278,3.0583,1
20,Reims,49.2628,4.0347,1
21,Saint-Étienne,45.4347,4.3903,8
22,Toulon,43.1258,5.9306,0
23,Dijon,47.3167,5.0167,8
24,Angers,47.4736,-0.5542,10
25,Nîmes,43.838,4.361,11
26,Villeurbanne,45.7667,4.8803,8
27,Clermont-Ferrand,45.7831,3.0824,2
28,Le Mans,48.0077,0.1984,4
29,Aix-en-Provence,43.5263,5.4454,11
30,Amiens,49.892,2.299,1
31,Tours,47.2436,0.6892,10
32,Boulogne-sur-Mer,50.7264,1.6147,1
33,Annecy,45.916,6.133,8
34,Perpignan,42.6986,2.8956,6
35,Boulogne-Billancourt,48.8352,2.2409,7
36,Besançon,47.24,6.02,3
37,Belfort,47.64,6.85,3
38,Saint-Denis,48.9356,2.3539,7
39,Argenteuil,48.95,2.25,7
40,Montreuil,48.8611,2.4436,7
41,Caen,49.18,-0.37,4
42,Roubaix,50.6901,3.1817,1
43,Tourcoing,50.7239,3.1612,1
44,Nanterre,48.8988,2.1969,7
45,Avignon,43.95,4.8075,11
46,Vitry-sur-Seine,48.7875,2.3928,7
47,Épinal,48.1744,6.4512,3
48,Créteil,48.7911,2.4628,7
49,Poitiers,46.58,0.34,10
50,Dunkerque,51.0383,2.3775,1
51,Aubervilliers,48.9131,2.3831,7
52,Versailles,48.8053,2.135,7
53,Aulnay-sous-Bois,48.9386,2.4906,7
54,Carrières-sur-Seine,48.9108,2.2889,7
55,Colombes,48.9236,2.2522,7
56,Courbevoic,48.8978,2.2531,7
57,Rueil-Malmaison,48.876,2.181,7
58,Champigny-sur-Marne,48.8172,2.5156,7
59,Béziers,43.3476,3.219,6
60,Pau,43.3,-0.37,9
61,La Rochelle,46.1591,-1.1517,10
62,Saint-Maur-des-Fossés,48.7994,2.4997,7
63,Calais,50.9481,1.8564,1
64,Cannes,43.5513,7.0128,0
65,Antibes,43.5808,7.1239,0
66,Drancy,48.93,2.45,7
67,Ajaccio,41.9267,8.7369,0
68,Mérignac,44.8386,-0.6436,9
69,Saint-Nazaire,47.2806,-2.2086,5
70,Colmar,48.0817,7.3556,3
71,Issy-les-Moulineaux,48.8239,2.27,7
72,Noisy-le-Grand,48.8478,2.5528,7
73,Courcouronnes,48.6239,2.4294,7
74,Vénissieux,45.6978,4.8867,8
75,Cergy,49.0361,2.0631,7
76,Bourges,47.0844,2.3964,2
77,Levallois-Perret,48.895,2.2872,7
78,La Seyne-sur-Mer,43.1,5.883,0
79,Pessac,44.8067,-0.6311,9
80,Valence,44.9333,4.8917,11
81,Quimper,47.9967,-4.0964,5
82,Antony,48.7539,2.2975,7
83,Ivry-sur-Seine,48.8078,2.3747,7
84,Montélimar,44.5581,4.7508,11
85,Troyes,48.2997,4.0792,7
86,Clichy,48.9044,2.3064,7
87,Cherbourg,49.6333,-1.6,4
88,Montauban,44.0181,1.3558,6
89,Neuilly-sur-Seine,48.8881,2.2686,7
90,Chambéry,45.57,5.9118,8
91,Niort,46.3258,-0.4606,10
92,Sarcelles,48.9956,2.3808,7
93,Pantin,48.8966,2.4017,7
94,Lorient,47.75,-3.36,5
95,Le Blanc-Mesnil,48.9387,2.4614,7
96,Beauvais,49.4303,2.0952,7
97,Maisons-Alfort,48.8058,2.4378,7
98,Hyères,43.1199,6.1316,0
99,Épinay-sur-Seine,48.9553,2.3092,7
100,Meaux,48.9603,2.8883,7
101,Chelles,48.8833,2.6,7
102,Villejuif,48.7919,2.3636,7
103,Narbonne,43.1836,3.0042,6
104,La Roche-sur-Yon,46.6705,-1.426,10
105,Cholet,47.06,-0.8783,10
106,Saint-Quentin,49.8486,3.2864,1
107,Évry,48.6239,2.4294,7
108,Bobigny,48.9106,2.4397,7
109,Bondy,48.9022,2.4828,7
110,Vannes,47.6559,-2.7603,5
111,Clamart,48.8014,2.2628,7
112,Fontenay-sous-Bois,48.8517,2.4772,7
113,Fréjus,43.433,6.737,0
114,Arles,43.6767,4.6278,11
115,Sartrouville,48.9372,2.1644,7
116,Corbeil-Essonnes,48.6139,2.482,7
117,Bayonne,43.49,-1.48,9
118,Saint-Ouen,48.9123,2.3342,7
119,Sevran,48.9333,2.5333,7
120,Cagnes-sur-Mer,43.6644,7.1489,0
121,Massy,48.7309,2.2713,7
122,Grasse,43.6667,6.9167,0
123,Montrouge,48.8172,2.3219,7
124,Vincennes,48.8478,2.4392,7
125,Vaulx-en-Velin,45.7768,4.9186,8
126,Laval,48.0733,-0.7689,4
127,Suresnes,48.87,2.22,7
128,Albi,43.9289,2.1464,6
129,Martigues,43.4053,5.0475,11
130,Évreux,49.02,1.15,7
131,Brive-la-Gaillarde,45.1583,1.5321,2
132,Gennevilliers,48.9333,2.3,7
133,Charleville-Mézières,49.7719,4.7161,1
134,Saint-Herblain,47.2122,-1.6497,10
135,Aubagne,43.2908,5.5708,0
136,Rosny-sous-Bois,48.8667,2.4833,7
137,Saint-Priest,45.6972,4.9447,8
138,Saint-Malo,48.6481,-2.0075,5
139,Blois,47.5939,1.3281,7
140,Carcassonne,43.21,2.35,6
141,Bastia,42.7008,9.4503,0
142,Salon-de-Provence,43.6406,5.0972,11
143,Meudon,48.8123,2.2382,7
144,Choisy-le-Roi,48.763,2.409,7
145,Chalon-sur-Saône,46.7806,4.8528,8
146,Châlons-en-Champagne,48.9575,4.365,1
147,Saint-Germain-en-Laye,48.8989,2.0938,7
148,Puteaux,48.885,2.2389,7
149,Livry-Gargan,48.9192,2.5361,7
150,Saint-Brieuc,48.5136,-2.7653,5
151,Mantes-la-Jolie,48.9908,1.7172,7
152,Noisy-le-Sec,48.8894,2.4503,7
153,Les Sables-d’Olonne,46.4972,-1.7833,10
154,Alfortville,48.805,2.4239,7
155,Châteauroux,46.8103,1.6911,2
156,Valenciennes,50.358,3.5233,1
157,Sète,43.4053,3.6975,11
158,Caluire-et-Cuire,45.7953,4.8472,8
159,Istres,43.5151,4.9895,11
160,La Courneuve,48.9322,2.3967,7
161,Garges-lès-Gonesse,48.9728,2.4008,7
162,Talence,44.8,-0.584,9
163,Angoulême,45.65,0.16,9
164,Castres,43.6,2.25,6
165,Bron,45.7394,4.9139,8
166,Bourg-en-Bresse,46.2056,5.2289,8
167,Tarbes,43.23,0.07,9
168,Le Cannet,43.5769,7.0194,0
169,Rezé,47.1833,-1.55,10
170,Arras,50.292,2.78,1
171,Wattrelos,50.7,3.217,1
172,Bagneux,48.7983,2.3137,7
173,Gap,44.5594,6.0786,0
174,Thionville,49.3589,6.1692,3
175,Alès,44.1281,4.0817,11
176,Compiègne,49.4149,2.8231,1
177,Melun,48.5406,2.66,7
178,Douai,50.3714,3.08,1
179,Gagny,48.8833,2.5333,7
180,Draguignan,43.5403,6.4667,0
181,Colomiers,43.6139,1.3367,6
182,Anglet,43.485,-1.5183,9
183,Stains,48.95,2.3833,7
184,Marcq-en-Baroeul,50.6711,3.0972,1
185,Chartres,48.456,1.484,7
186,Saint-Martin-d’Hères,45.1672,5.7653,8
187,Joué-lés-Tours,47.3514,0.6625,10
188,Poissy,48.9294,2.0456,7
189,Châtillon,48.8,2.29,7
190,Villefranche-sur-Saône,45.9833,4.7167,8
191,Échirolles,45.1436,5.7183,8
192,Villepinte,48.955,2.541,7
193,Franconville,48.9889,2.2314,7
194,Savigny-sur-Orge,48.6797,2.3457,7
195,Sainte-Geneviève-des-Bois,48.6369,2.3403,7
196,Conflans-Sainte-Honorine,48.9992,2.0983,7
197,Annemasse,46.1958,6.2364,8
198,Bagnolet,48.8692,2.4181,7
199,Creil,49.2583,2.4833,7
200,Montluçon,46.3408,2.6033,2
201,Palaiseau,48.7145,2.2457,7
202,La Ciotat,43.1769,5.6086,0
203,Saint-Raphaël,43.4252,6.7684,0
204,Neuilly-sur-Marne,48.8537,2.549,7
205,Saint-Chamond,45.4775,4.5153,8
206,Thonon-les-Bains,46.3627,6.475,8
207,Auxerre,47.7986,3.5672,7
208,Haguenau,48.82,7.79,3
209,Roanne,46.0367,4.0689,8
210,Athis-Mons,48.7074,2.3889,7
211,Villenave-d’Ornon,44.7806,-0.5658,9
212,Le Perreux-Sur-Marne,48.8422,2.5036,7
213,Mâcon,46.3063,4.8313,8
214,Agen,44.2049,0.6212,9
215,Villeneuve-Saint-Georges,48.7325,2.4497,7
216,Meyzieu,45.7667,5.0036,8
217,Vitrolles,43.46,5.2486,11
218,Châtenay-Malabry,48.7653,2.2781,7
219,Romans-sur-Isère,45.0464,5.0517,8
220,Nevers,46.9933,3.1572,2
221,Montigny-le-Bretonneux,48.7711,2.0333,7
222,Marignane,43.416,5.2145,11
223,Nogent-sur-Marne,48.8375,2.4833,7
224,Six-Fours-les-Plages,43.1009,5.82,0
225,Les Mureaux,48.9875,1.9172,7
226,Trappes,48.7775,2.0025,7
227,Cambrai,50.1767,3.2356,1
228,Houilles,48.9261,2.1892,7
229,Schiltigheim,48.6078,7.75,3
230,Châtellerault,46.8178,0.5461,10
231,Vigneux-sur-Seine,48.7001,2.417,7
232,Plaisir,48.8183,1.9472,7
233,Lens,50.4322,2.8333,1
234,L’Haÿ-les-Roses,48.78,2.3374,7
235,Saint-Médard-en-Jalles,44.8964,-0.7164,9
236,Viry-Châtillon,48.6713,2.375,7
237,Cachan,48.7919,2.3319,7
238,Dreux,48.7372,1.3664,7
239,Liévin,50.4228,2.7786,1
240,Pontoise,49.0516,2.1017,7
241,Goussainville,49.0325,2.4747,7
242,Charenton-le-Pont,48.8265,2.405,7
243,Pierrefitte-sur-Seine,48.9656,2.3614,7
244,Malakoff,48.8169,2.2944,7
245,Chatou,48.8897,2.1573,7
246,Rillieux-la-Pape,45.8214,4.8983,8
247,Vandœuvre-lès-Nancy,48.6567,6.1683,3
248,Savigny-le-Temple,48.5841,2.5832,7
249,Saint-Cloud,48.84,2.22,7
250,Périgueux,45.1929,0.7217,9
251,Villemomble,48.8833,2.5,7
252,Maubeuge,50.2775,3.9734,1
253,Aix-les-Bains,45.6885,5.9153,8
254,Mont-de-Marsan,43.89,-0.5,9
255,Bezons,48.9261,2.2178,7
256,Clichy-sous-Bois,48.9102,2.5532,7
257,Vienne,45.5242,4.8781,8
258,Ris-Orangis,48.6537,2.4161,7
259,La Garenne-Colombes,48.9056,2.2445,7
260,Ermont,48.9922,2.2603,7
261,Le Plessis-Robinson,48.7811,2.2633,7
262,Dieppe,49.92,1.08,4
263,Yerres,48.7171,2.4881,7
264,Thiais,48.765,2.3923,7
265,Sotteville-lès-Rouen,49.4092,1.09,4
266,Menton,43.775,7.5,0
267,Orange,44.1383,4.8097,11
268,Draveil,48.6852,2.408,7
269,Grigny,48.6562,2.3849,7
270,Saint-Étienne-du-Rouvray,49.3786,1.105,7
271,Guyancourt,48.7714,2.0739,7
272,Agde,43.3108,3.4758,11
273,Décines-Charpieu,45.7694,4.9594,8
274,Bègles,44.8086,-0.5478,9
275,Soissons,49.3817,3.3236,1
276,Villiers-sur-Marne,48.8275,2.5447,7
277,Saint-Laurent-du-Var,43.668,7.188,0
278,Bourgoin-Jallieu,45.5861,5.2736,8
279,Carpentras,44.0558,5.0489,11
280,Bois-Colombes,48.9175,2.2683,7
281,Lomme,50.6455,2.9876,1
282,Fresnes,48.755,2.3221,7
283,Vanves,48.8208,2.2897,7
284,Le Chesnay,48.8203,2.1303,7
285,Villiers-le-Bel,49.0094,2.3911,7
286,Lambersart,50.65,3.025,1
287,Romainville,48.884,2.435,7
288,Bussy-Saint-Georges,48.8422,2.6983,7
289,Limeil-Brévannes,48.7464,2.4883,7
290,Tournefeuille,43.5853,1.3442,6
291,Saint-Sébastien-sur-Loire,47.2081,-1.5014,10
292,Bergerac,44.85,0.48,9
293,Montfermeil,48.9,2.5667,7
294,Illkirch-Graffenstaden,48.53,7.72,3
295,Rambouillet,48.6444,1.8308,7
296,Saumur,47.26,-0.0769,10
297,Vallauris,43.5805,7.0538,0
298,Sannois,48.9722,2.2578,7
299,Cavaillon,43.8375,5.0381,11
300,Brétigny-sur-Orge,48.6114,2.3059,7
301,Sucy-en-Brie,48.7697,2.5228,7
302,Miramas,43.5822,5.0019,11
303,Taverny,49.0264,2.2275,7
304,Orvault,47.2717,-1.6225,10
305,Villeparisis,48.9503,2.6025,7
306,Saint-Dizier,48.6383,4.9497,3
307,Oullins,45.715,4.8083,8
308,Lunel,43.6778,4.1361,11
309,La Teste-de-Buch,44.62,-1.1457,9
310,Hénin-Beaumont,50.4217,2.9508,1
311,Gonesse,48.9875,2.4494,7
312,Sens,48.1975,3.2877,7
313,Vierzon,47.2225,2.0694,2
314,Alençon,48.4306,0.0931,4
315,Le Grand-Quevilly,49.4072,1.0531,4
316,Brunoy,48.6979,2.5044,7
317,Gradignan,44.7725,-0.6156,9
318,Aurillac,44.9261,2.4406,2
319,Saintes,45.7464,-0.6333,10
320,Biarritz,43.48,-1.56,9
321,Élancourt,48.7847,1.9589,7
322,Montbéliard,47.51,6.8,3
323,Le Kremlin-Bicêtre,48.81,2.3581,7
324,La Garde,43.1256,6.0108,0
325,Eaubonne,48.9922,2.2806,7
326,Étampes,48.4343,2.1615,7
327,Champs-Sur-Marne,48.8529,2.6027,7
328,Muret,43.4611,1.3267,6
329,Béthune,50.5303,2.6408,1
330,Armentières,50.6881,2.8811,1
331,Laon,49.5639,3.6244,1
332,Libourne,44.92,-0.24,9
333,Cenon,44.8578,-0.5317,9
334,Fontenay-aux-Roses,48.7893,2.2888,7
335,Blagnac,43.6364,1.3906,6
336,Vertou,47.1689,-1.4697,10
337,Vichy,46.1278,3.4267,2
338,Cormeilles-en-Parisis,48.9739,2.2014,7
339,Rochefort,45.9421,-0.9588,10
340,Rodez,44.3506,2.575,6
341,Les Pavillons-sous-Bois,48.9,2.5,7
342,La Valette-du-Var,43.1383,5.9831,0
343,Vernon,49.09,1.49,7
344,Le Bouscat,44.8651,-0.5996,9
345,Orly,48.7439,2.3928,7
346,Montgeron,48.7039,2.4605,7
347,Villeneuve-la-Garenne,48.9372,2.3278,7
348,Saint-Ouen-l’Aumône,49.0447,2.1111,7
349,Dole,47.0931,5.4906,8
350,Maisons-Laffitte,48.9469,2.1456,7
351,Lormont,44.8792,-0.5217,9
352,Sèvres,48.8239,2.2117,7
353,Eysines,44.8853,-0.65,9
354,Les Lilas,48.88,2.42,7
355,Roissy-en-Brie,48.7906,2.6519,7
356,Grande-Synthe,51.0139,2.3028,1
357,Hérouville-Saint-Clair,49.2044,-0.3253,4
358,Abbeville,50.1058,1.8358,1
359,Frontignan,43.4483,3.7561,11
360,Lanester,47.7647,-3.3422,5
361,Épernay,49.0403,3.96,1
362,Saint-Mandé,48.8422,2.4186,7
363,Torcy,48.8502,2.6508,7
364,Fontaine,45.1939,5.6856,8
365,Mandelieu-la-Napoule,43.5464,6.9381,0
366,Oyonnax,46.2561,5.6556,8
367,Combs-la-Ville,48.67,2.56,7
368,Manosque,43.8342,5.7839,0
369,Deuil-la-Barre,48.9767,2.3272,7
370,Tassin-la-Demi-Lune,45.764,4.78,8
371,Loos,50.6128,3.0144,1
372,Millau,44.0986,3.0783,6
373,Villeneuve-sur-Lot,44.4081,0.705,9
374,Vélizy-Villacoublay,48.7834,2.1834,7
375,Sainte-Foy-lès-Lyon,45.73,4.8,8
376,Le Petit-Quevilly,49.4311,1.0539,4
377,Olivet,47.8639,1.9006,7
378,Chaumont,48.1117,5.1389,3
379,Auch,43.6465,0.5855,9
380,Dammarie-lè-Lys,48.5177,2.6402,7
381,Montigny-lès-Metz,49.1006,6.1539,3
382,Le Creusot,46.8014,4.4411,8
383,Montigny-lès-Cormeilles,48.9944,2.1958,7
384,Seynod,45.8889,6.0961,8
385,Forbach,49.19,6.9,3
386,Arcueil,48.8075,2.3361,7
387,Montmorency,48.9906,2.3228,7
388,Hazebrouck,50.725,2.5392,1
389,Annecy-le-Vieux,45.9192,6.1419,8
390,Villeneuve-le-Roi,48.7333,2.4167,7
391,Gif-sur-Yvette,48.7018,2.1339,7
392,Couëron,47.2156,-1.7228,10
393,Thorigny-sur-Marne,48.8788,2.7075,7
394,Longjumeau,48.6943,2.2958,7
395,Saint-Genis-Laval,45.696,4.793,8
396,Allauch,43.3369,5.4828,11
397,Saint-Louis,47.59,7.57,3
398,La Madeleine,50.6558,3.071,1
399,Gujan-Mestras,44.6364,-1.0667,9
400,Neuilly-Plaisance,48.8619,2.5064,7
401,Coudekerque-Branche,51.0253,2.3917,1
402,Les Pennes-Mirabeau,43.4106,5.3103,11
403,Croix,50.6781,3.1508,1
404,Beaune,47.025,4.8397,8
405,Fleury-les-Aubrais,47.9512,1.8745,7
406,Achères,48.9602,2.0684,7
407,La Celle-Saint-Cloud,48.8411,2.1344,7
408,Morsang-sur-Orge,48.6618,2.3461,7
409,Le Mée-sur-Seine,48.5333,2.6289,7
410,Halluin,50.7836,3.1256,1
411,Gardanne,43.4553,5.476,11
412,Sarreguemines,49.11,7.07,3
413,Mons-en-Baroeul,50.6369,3.1103,1
414,Saint-Jean-de-Braye,47.9128,1.9719,7
415,Saint-Gratien,48.9719,2.2828,7
416,Dax,43.71,-1.05,9
417,Bourg-la-Reine,48.7796,2.3151,7
418,Challans,46.8467,-1.8781,10
419,Chaville,48.8086,2.1886,7
420,Castelnau-le-Lez,43.6369,3.9019,11
421,Saint-Pol-sur-Mer,51.0314,2.3439,1
422,Wasquehal,50.6694,3.1308,1
423,Mantes-la-Ville,48.975,1.7117,7
424,Fougères,48.3525,-1.1986,4
425,Pertuis,43.695,5.5036,11
426,Mitry-Mory,48.9839,2.6164,7
427,Ozoir-la-Ferrière,48.778,2.68,7
428,Lisieux,49.15,0.23,4
429,Montereau-faut-Yonne,48.3853,2.9508,7
430,Chilly-Mazarin,48.7025,2.3125,7
431,Le Plessis-Trévise,48.8111,2.5717,7
432,Givors,45.5906,4.7689,8
433,Voiron,45.3642,5.5906,8
434,Cournon-d’Auvergne,45.7422,3.1972,2
435,Lannion,48.7325,-3.4553,5
436,Nogent-sur-Oise,49.2756,2.4683,7
437,Carquefou,47.2969,-1.4928,10
438,Saint-Michel-sur-Orge,48.6325,2.3028,7
439,Denain,50.3286,3.395,1
440,Cahors,44.4475,1.4406,6
441,Bourg-lès-Valence,44.9475,4.8953,11
442,Chevilly-Larue,48.7664,2.3533,7
443,Bressuire,46.84,-0.4886,10
444,Saint-Dié-des-Vosges,48.2842,6.9492,3
445,L’Isle-sur-la-Sorgue,43.9194,5.0514,11
446,Bouguenais,47.1775,-1.6214,10
447,Sceaux,48.7786,2.2906,7
448,Moulins,46.5647,3.3325,2
449,La Chapelle-sur-Erdre,47.2989,-1.5528,10
450,Joinville-le-Pont,48.8214,2.4728,7
451,Concarneau,47.8753,-3.9189,5
452,Mougins,43.6,6.9947,0
453,Ronchin,50.6047,3.0878,1
454,Sélestat,48.2594,7.4542,3
455,Mont-Saint-Aignan,49.4625,1.0872,4
456,Saint-Fons,45.7086,4.8533,8
457,Albertville,45.6758,6.3925,8
458,Le Puy-en-Velay,45.0433,3.885,11
459,Saint-Lô,49.1144,-1.0917,4
460,Saint-Cyr-l’École,48.8003,2.0625,7
461,Riom,45.8936,3.1125,2
462,Lingolsheim,48.5575,7.6831,3
463,Plaisance-du-Touch,43.5656,1.2964,6
464,Villefontaine,45.6133,5.1486,8
465,Sorgues,44.0083,4.8725,11
466,Vence,43.7225,7.1119,0
467,Cognac,45.6958,-0.3292,10
468,Hem,50.6553,3.1878,1
469,Écully,45.7744,4.7775,8
470,Gentilly,48.8133,2.3444,7
471,Bruz,48.0247,-1.7458,5
472,La Crau,43.1497,6.0742,0
473,Royan,45.6231,-1.0431,10
474,Hellemmes-Lille,50.6283,3.11,1
475,Louviers,49.2153,1.1656,7
476,Cran-Gévrier,45.9036,6.1039,8
477,Bruges,44.8828,-0.6125,9
478,Cugnaux,43.5378,1.3436,6
479,Vitré,48.1233,-1.2094,4
480,Fécamp,49.7575,0.3792,4
481,Soisy-sous-Montmorency,48.9878,2.2997,7
482,Brie-Comte-Robert,48.6925,2.6111,7
483,Fâches-Thumesnil,50.5989,3.0736,1
484,Éragny,49.0172,2.0914,7
485,Chennevières-sur-Marne,48.7983,2.5339,7
486,Bagnols-sur-Cèze,44.1625,4.62,11
487,Bonneuil-sur-Marne,48.7742,2.4875,7
488,Lunéville,48.5894,6.5017,3
489,Maurepas,48.7628,1.9456,7
490,Montceau-les-Mines,46.6669,4.3689,8
491,Floirac,44.8364,-0.5258,9
492,Moissy-Cramayel,48.6261,2.5922,7
493,Ploemeur,47.7358,-3.4311,5
494,Garches,48.8456,2.1869,7
495,Avion,50.4097,2.8328,1
496,Les Clayes-sous-Bois,48.8206,1.9836,7
497,Marmande,44.5,0.1653,9
498,Le Pré-Saint-Gervais,48.885,2.4039,7
499,Meylan,45.2086,5.7794,8
500,Châteauneuf-les-Martigues,43.3831,5.1642,11
501,Osny,49.0592,2.0625,7
502,Carvin,50.4931,2.9581,1
503,Pontarlier,46.9061,6.3547,8
504,Brignoles,43.4058,6.0617,0
505,Lons-le-Saunier,46.6744,5.5539,8
506,Cesson-Sévigné,48.1208,-1.6036,5
507,Le Pontet,43.9642,4.86,11
508,Chamalières,45.7736,3.0669,2
509,Verdun,49.1597,5.3828,3
510,Limay,48.9933,1.7358,7
511,Bischheim,48.6139,7.7519,3
512,Juvisy-sur-Orge,48.6883,2.3775,7
513,Cluses,46.0603,6.5786,8
514,Firminy,45.3881,4.2872,8
515,Cestas,44.7444,-0.6822,9
516,Bry-sur-Marne,48.8411,2.5222,7
517,Hendaye,43.3586,-1.7744,9
518,Mauguio,43.6164,4.0075,11
519,Lattes,43.5678,3.9021,11
520,Sanary-sur-Mer,43.1192,5.8022,0
521,Yutz,49.3589,6.1886,3
522,Vauréal,49.03,2.0214,7
523,Saint-Maximin-la-Sainte-Baume,43.4533,5.8619,0
524,Port-de-Bouc,43.405,4.9886,11
525,Ambarès-et-Lagrave,44.9247,-0.4867,9
526,Balma,43.6103,1.4986,6
527,Sallanches,45.9364,6.6319,8
528,Boissy-Saint-Léger,48.7503,2.5097,7
529,Saint-Jean-de-la-Ruelle,47.9131,1.8733,7
530,Viroflay,48.8,2.1722,7
531,Saran,47.9514,1.8803,7
532,Marly-le-Roi,48.8669,2.0942,7
533,Digne-les-Bains,44.0925,6.2356,0
534,Annonay,45.24,4.6708,8
535,Carrières-sous-Poissy,48.9478,2.0386,7
536,Jouy-le-Moutier,49.0108,2.0386,7
537,Elbeuf,49.2858,1.0083,4
538,Sedan,49.7019,4.9403,1
539,L’Isle-d’Abeau,45.6194,5.2331,8
540,Le Bourget,48.9344,2.4244,7
541,Les Herbiers,46.8711,-1.0136,10
542,Vendôme,47.7928,1.0656,7
543,Escoublac,47.2858,-2.3922,5
544,Guérande,47.3281,-2.4292,5
545,Saint-Amand-les-Eaux,50.4481,3.4269,1
546,Tourlaville,49.6408,-1.5789,4
547,Châteaurenard,43.8825,4.855,11
548,Saint-Cyr-sur-Loire,47.4028,0.6781,10
549,Verneuil-sur-Seine,48.9797,1.9739,7
550,Le Pecq,48.8967,2.1061,7
551,Landerneau,48.4508,-4.2494,5
552,Hayange,49.3297,6.0619,3
553,Le Vésinet,48.8939,2.1322,7
554,Hennebont,47.8042,-3.2789,5
555,Orsay,48.6981,2.1875,7
556,Saint-Leu-la-Forêt,49.0169,2.2464,7
557,Saint-Égrève,45.2317,5.6831,8
558,Villeneuve-Loubet,43.6581,7.1214,0
559,Saint-Pierre-des-Corps,47.3908,0.7281,10
560,Beaucaire,43.8072,4.6433,11
561,Noisiel,48.8547,2.6289,7
562,Montbrison,45.6075,4.0653,8
563,Pamiers,43.1164,1.6108,6
564,Fos-sur-Mer,43.4544,4.9436,11
565,Pornic,47.1156,-2.1033,5
566,Montivilliers,49.5461,0.1881,4
567,Sin-le-Noble,50.3631,3.1131,1
568,Blanquefort,44.9106,-0.6375,9
569,Saint-Julien-en-Genevois,46.1442,6.0842,8
570,Toul,48.675,5.8917,3
571,Lucé,48.4383,1.465,7
572,Saint-Avold,49.1042,6.7081,3
573,Domont,49.0275,2.3267,7
574,Fontainebleau,48.4089,2.7017,7
575,Rumilly,45.8667,5.9444,8
576,Château-Thierry,49.0464,3.4031,7
577,Gaillac,43.9006,1.8983,6
578,Sainte-Luce-sur-Loire,47.2494,-1.4867,10
579,Bois-d’Arcy,48.8014,2.0317,7
580,Issoire,45.5442,3.2489,2
581,Tarascon,43.805,4.6594,11
582,Rive-de-Gier,45.5294,4.6169,8
583,Olonne-sur-Mer,46.5361,-1.7728,10
584,Saint-Rambert,45.4994,4.24,8
585,Bailleul,50.7375,2.7339,1
586,Montesson,48.9086,2.1494,7
587,Vesoul,47.6222,6.1553,3
588,Saint-Avertin,47.3667,0.7267,10
589,Verrières-le-Buisson,48.7475,2.2628,7
590,La Flèche,47.6997,-0.0761,4
591,Senlis,49.2072,2.5867,7
592,Pontivy,48.0686,-2.9628,5
593,Saint-Brice-sous-Forêt,48.9986,2.3569,7
594,Guipavas,48.4336,-4.4008,5
595,Valenton,48.745,2.4672,7
596,Crépy-en-Valois,49.2344,2.8875,7
597,Montargis,47.9969,2.7325,7
598,Bouc-Bel-Air,43.4544,5.4144,11
599,Flers,48.7483,-0.5694,4
600,Haubourdin,50.6092,2.9869,1
601,Trélazé,47.4461,-0.4664,10
602,Coulommiers,48.8156,3.0836,7
603,Wattignies,50.585,3.0431,1
604,Bar-le-Duc,48.7717,5.1672,3
605,Longwy,49.5197,5.7606,3
606,Morlaix,48.5775,-3.8278,5
607,Saint-Omer,50.7483,2.2608,1
608,Le Raincy,48.8992,2.5231,7
609,Tulle,45.2658,1.7722,2
610,Illzach,47.7822,7.3481,3
611,Mennecy,48.5653,2.4361,7
612,Francheville,45.7364,4.7636,8
613,Roquebrune-sur-Argens,43.4433,6.6378,0
614,Méru,49.2358,2.135,7
615,Hautmont,50.2481,3.9244,1
616,Villers-lès-Nancy,48.6731,6.1547,3
617,Wittenheim,47.8075,7.3369,3
618,Caudry,50.125,3.4117,1
619,Ramonville-Saint-Agne,43.5461,1.4756,6
620,Pont-à-Mousson,48.9044,6.0542,3
621,Château-d’Olonne,46.5042,-1.7372,10
622,Arnouville-lès-Gonesse,48.9872,2.4167,7
623,Romilly-sur-Seine,48.5158,3.7267,7
624,Bois-Guillaume,49.47,1.1194,7
625,Laxou,48.6856,6.1522,3
626,Dinan,48.4556,-2.0503,5
627,Lognes,48.8361,2.6278,7
628,Canteleu,49.4511,1.0361,4
629,Fameck,49.2992,6.1097,3
630,Sainte-Maxime,43.3089,6.6378,0
631,Chenôve,47.2911,5.0072,8
632,Ambérieu-en-Bugey,45.9581,5.3578,8
633,Saint-Jean-de-Luz,43.3903,-1.6597,9
634,Plérin,48.5344,-2.7708,5
635,Montmagny,48.9736,2.3458,7
636,Saint-Brevin-les-Pins,47.2464,-2.1669,5
637,Saint-Fargeau,48.5328,2.5447,7
638,Rixheim,47.7486,7.4044,3
639,Avrillé,47.5069,-0.5889,10
640,Douarnenez,48.0922,-4.3303,5
641,Saint-Maurice,48.8183,2.4347,7
642,Woippy,49.1511,6.1514,3
643,Biscarrosse,44.3931,-1.1639,9
644,Auray,47.6678,-2.9825,5
645,Castelsarrasin,44.04,1.1069,6
646,Thouars,46.975,-0.2153,10
647,Fleury-Mérogis,48.6294,2.3614,7
648,Castanet-Tolosan,43.5156,1.4981,6
649,Berck-sur-Mer,50.4083,1.5928,1
650,Saint-Gilles,43.6778,4.4311,11
651,Ollioules,43.1394,5.8469,0
652,Gien,47.6981,2.625,7
653,Argentan,48.7444,-0.0203,4
654,Lons,43.315,-0.4108,9
655,Mions,45.6631,4.9531,8
656,Avon,48.4089,2.725,7
657,Beausoleil,43.7419,7.4236,0
658,Outreau,50.7039,1.5939,1
659,Saint-Martin-de-Crau,43.6397,4.8125,11
660,Tergnier,49.6558,3.2872,1
661,Saint-Jacques-de-la-Lande,48.0903,-1.6956,5
662,Berre-l’Étang,43.4756,5.1681,11
663,Bollène,44.2803,4.7489,11
664,Fontenay-le-Fleury,48.8136,2.0486,7
665,Lys-lès-Lannoy,50.6714,3.2144,1
666,Montataire,49.2556,2.4383,7
667,Morangis,48.7064,2.3347,7
668,Pierrelatte,44.3775,4.6961,11
669,Saint-Paul-lès-Dax,43.7256,-1.0528,9
670,Lieusaint,48.6322,2.5486,7
671,Persan,49.1533,2.2711,7
672,Vaires-sur-Marne,48.8742,2.6381,7
673,Roncq,50.7536,3.1203,1
674,Audincourt,47.4828,6.8397,3
675,Plougastel-Daoulas,48.3725,-4.3706,5
676,Anzin,50.3714,3.5044,1
677,Fontenay-le-Comte,46.4669,-0.8064,10
678,Kingersheim,47.7914,7.3381,3
679,Valbonne,43.6414,7.0089,0
680,Saint-Genis-Pouilly,46.2433,6.0214,8
681,Noyon,49.5811,2.9989,1
682,Lourdes,43.095,-0.0453,9
683,Moissac,44.1047,1.0853,6
684,Mouvaux,50.7033,3.1406,1
685,Nemours,48.2686,2.6936,7
686,Autun,46.9511,4.2986,8
687,Amilly,47.9731,2.7703,7
688,Gex,46.3333,6.0578,8
689,Andrésy,48.9808,2.0583,7
690,Châteaudun,48.0708,1.3378,7
691,Creutzwald,49.2053,6.6958,3
692,Genas,45.7314,5.0022,8
693,Bayeux,49.2786,-0.7039,4
694,Plouzané,48.38,-4.6006,5
695,Saint-André,50.6603,3.0439,1
696,Yzeure,46.5658,3.3544,2
697,Guéret,46.1706,1.8683,2
698,Monteux,44.0356,4.9972,11
699,Mayenne,48.3031,-0.6136,4
700,Les Ponts-de-Cé,47.4244,-0.5253,10
701,Châlette-sur-Loing,48.0117,2.7358,7
702,Graulhet,43.7608,1.9886,6
703,Auriol,43.3694,5.6314,0
704,Montévrain,48.8753,2.7456,7
705,Amboise,47.4114,0.9825,4
706,Cusset,46.1344,3.4564,2
707,Riedisheim,47.7483,7.3669,3
708,Billère,43.3025,-0.3972,9
709,Bischwiller,48.7664,7.8569,3
710,Pont-Sainte-Maxence,49.3011,2.6036,7
711,Ostwald,48.5511,7.7136,3
712,Saint-André-les-Vergers,48.2797,4.0539,7
713,Lamballe,48.4686,-2.5178,5
714,Granville,48.8381,-1.5869,4
715,Bonneville,46.0789,6.4008,8
716,Vernouillet,48.7208,1.3606,7
717,Saint-Orens-de-Gameville,43.5514,1.5342,6
718,Comines,50.7611,3.0078,1
719,Tarnos,43.5406,-1.4614,9
720,Carros,43.7725,7.1933,0
721,Raismes,50.3892,3.4858,1
722,Seclin,50.5483,3.0294,1
723,Sarrebourg,48.7347,7.0539,3
724,Harnes,50.445,2.9058,1
725,Épinay-sous-Sénart,48.6931,2.5158,7
726,Claye-Souilly,48.945,2.6867,7
727,Aubenas,44.6197,4.3903,11
728,Mende,44.5183,3.5006,11
729,Somain,50.3575,3.2803,1
730,Barentin,49.5444,0.9536,4
731,Le Chambon-Feugerolles,45.3961,4.325,8
732,Quimperlé,47.8728,-3.5497,5
733,Canet-en-Roussillon,42.7056,3.0072,6
734,Vidauban,43.4272,6.4319,0
735,Sablé-sur-Sarthe,47.84,-0.3342,4
736,Bully-les-Mines,50.4419,2.7244,1
737,Oissel,49.3419,1.0914,4
738,Andernos-les-Bains,44.7425,-1.0903,9
739,Triel-sur-Seine,48.9808,2.0061,7
740,Rognac,43.4878,5.2322,11
741,Marly,50.3489,3.5442,1
742,Saint-André-de-Cubzac,44.9947,-0.4458,9
743,Fonsorbes,43.5361,1.2311,6
744,Mèze,43.4267,3.6053,11
745,Châteaubriant,47.7169,-1.3761,10
746,Provins,48.5589,3.2994,7
747,L’Isle-Adam,49.1111,2.2228,7
748,Aubergenville,48.9583,1.855,7
749,Betton,48.1825,-1.6439,5
750,Castelnaudary,43.3181,1.9539,6
751,La Motte-Servolex,45.5967,5.8775,8
752,La Chapelle-Saint-Luc,48.3119,4.0444,7
753,La Queue-en-Brie,48.7894,2.5767,7
754,Florange,49.3214,6.1183,3
755,Pacé,48.1478,-1.7739,5
756,Noeux-les-Mines,50.4797,2.6647,1
757,Château-Gontier,47.8286,-0.7028,10
758,Pont-du-Château,45.7983,3.2483,2
759,Saint-Avé,47.6867,-2.7344,5
760,Villefranche-de-Rouergue,44.3525,2.0342,6
761,Thiers,45.8564,3.5475,2
762,Chauny,49.6156,3.2192,1
763,Villeneuve-lès-Avignon,43.9664,4.7958,11
764,Porto-Vecchio,41.5908,9.2797,0
765,Vitry-le-François,48.7247,4.5844,1
766,Chambray-lès-Tours,47.3375,0.7139,10
767,Fourmies,50.0172,4.0533,1
768,Brignais,45.6739,4.7542,8
769,Saint-Estève,42.7133,2.8419,6
770,Issoudun,46.9481,1.9933,2
771,Gisors,49.2806,1.7764,7
772,Onet Village,44.3656,2.5936,6
773,Guidel,47.7906,-3.4886,5
774,Vauvert,43.6933,4.2761,11
775,Talant,47.3364,5.0056,8
776,Yvetot,49.6169,0.7531,4
777,Le Relecq-Kerhuon,48.4086,-4.3969,5
778,Bolbec,49.5722,0.4725,4
779,Saint-Gaudens,43.1081,0.7233,6
780,Saint-Cyr-sur-Mer,43.1836,5.7086,0
781,Arcachon,44.6586,-1.1689,9
782,Ifs,49.1383,-0.3531,4
783,Cuers,43.2375,6.0708,0
784,Cogolin,43.2525,6.53,0
785,Solliès-Pont,43.19,6.0411,0
786,Maizières-lès-Metz,49.2122,6.1611,3
787,Ploufragan,48.4894,-2.7958,5
788,Plan-de-Cuques,43.3469,5.4631,11
789,L’Union,43.6564,1.4844,6
790,Bellegarde-sur-Valserine,46.1075,5.8258,8
791,Stiring-Wendel,49.2,6.9292,3
792,Juvignac,43.6131,3.8097,11
793,Saint-Saulve,50.3697,3.5547,1
794,Obernai,48.4622,7.4819,3
795,Méricourt,50.4022,2.8658,1
796,Le Haillan,44.8717,-0.6769,9
797,Cernay,47.8067,7.1758,3
798,Bruay-sur-l’Escaut,50.3983,3.5394,1
799,Saverne,48.7414,7.3619,3
800,Enghien-les-Bains,48.9697,2.3081,7
801,Sassenage,45.205,5.665,8
802,Saint-Junien,45.8872,0.9011,2
803,Lézignan-Corbières,43.2006,2.7578,6
804,Saint-Martin-Boulogne,50.7258,1.6322,1
805,Passy,45.9236,6.6864,8
806,Saint-Hilaire-de-Riez,46.7211,-1.9456,10
807,La Roche-sur-Foron,46.0669,6.3119,8
808,Épinay-sur-Orge,48.6739,2.3272,7
809,Chevigny-Saint-Sauveur,47.3017,5.1356,8
810,Hœnheim,48.6242,7.7547,3
811,Gravelines,50.9864,2.1275,1
812,Vedène,43.9775,4.9031,11
813,Craponne,45.7453,4.7233,8
814,Villecresnes,48.7214,2.5342,7
815,Corbas,45.6681,4.9019,8
816,Mainvilliers,48.4531,1.4619,7
817,Briançon,44.8958,6.635,0
818,Allonnes,47.9686,0.1606,4
819,Septèmes-les-Vallons,43.3983,5.3658,11
820,Ville-d’Avray,48.8261,2.1933,7
821,Guebwiller,47.9075,7.2103,3
822,Apt,43.8761,5.3964,11
823,Le Luc,43.3947,6.3128,0
824,Chantilly,49.1869,2.4608,7
825,Vaux-le-Pénil,48.5264,2.6822,7
826,Villepreux,48.83,2.0022,7
827,Panazol,45.8389,1.31,2
828,Pornichet,47.2658,-2.34,5
829,Saint-Pierre-du-Perray,48.6131,2.4953,7
830,Saint-Jean,43.6653,1.505,6
831,Étaples,50.5178,1.6406,1
832,Voisins-le-Bretonneux,48.7583,2.0508,7
833,Biganos,44.6442,-0.9783,9
834,Arpajon,48.5903,2.2478,7
835,Valentigney,47.4625,6.8322,3
836,Saint-Germain-lès-Arpajon,48.5953,2.2556,7
837,Wambrechies,50.6853,3.0486,1
838,Saint-Cyprien,42.6181,3.0064,6
839,Montlouis-sur-Loire,47.3883,0.8272,10
840,Beaumont,45.7517,3.0831,2
841,Pontchâteau,47.4369,-2.0878,5
842,Vire,48.8386,-0.8892,4
843,Guilherand,44.9344,4.8747,11
844,Dugny,48.9536,2.4164,7
845,Riorges,46.0428,4.0406,8
846,Aubière,45.7508,3.1108,2
847,Longuenesse,50.7356,2.2372,1
848,Castelginest,43.6936,1.4328,6
849,Maromme,49.4819,1.0419,4
850,Villers-Cotterêts,49.2531,3.0903,7
851,Lavaur,43.6989,1.8189,6
852,Portes-lès-Valence,44.8733,4.8764,11
853,Héricourt,47.5775,6.7617,3
854,Marck,50.9481,1.9503,1
855,Oloron-Sainte-Marie,43.1942,-0.6067,9
856,Cesson,48.5658,2.6011,7
857,Erstein,48.4219,7.6611,3
858,Le Pont-de-Claix,45.1231,5.6981,8
859,Tournon-sur-Rhône,45.0672,4.8328,8
860,Tarare,45.8961,4.4331,8
861,Dourdan,48.5289,2.0108,7
862,Villebon-sur-Yvette,48.7,2.2278,7
863,Courrières,50.4581,2.9472,1
864,Orthez,43.4881,-0.7708,9
865,Amnéville,49.2608,6.1419,3
866,Trets,43.4469,5.6858,0
867,Chassieu,45.7444,4.9664,8
868,Annoeullin,50.5294,2.9328,1
869,Louvres,49.0439,2.5053,7
870,Léognan,44.7286,-0.6008,9
871,Déville-lès-Rouen,49.4697,1.0497,4
872,Pierre-Bénite,45.7036,4.8242,8
873,Chantepie,48.0886,-1.6164,5
874,Saint-Jean-de-Védas,43.5764,3.8239,11
875,Urrugne,43.3622,-1.7,9
876,Gaillard,46.185,6.2075,8
877,Sainte-Savine,48.2947,4.0489,7
878,Pélissanne,43.6314,5.1506,11
879,Ormesson-sur-Marne,48.7858,2.5383,7
880,Auchel,50.5083,2.4736,1
881,Mios,44.605,-0.9369,9
882,Pont-Saint-Esprit,44.2564,4.6483,11
883,La Londe-les-Maures,43.1381,6.2344,0
884,Vieux-Condé,50.4594,3.5683,1
885,Argelès-sur-Mer,42.5461,3.0239,6
886,Fondettes,47.4042,0.5989,10
887,Marquette-lès-Lille,50.6758,3.0661,1
888,Chanteloup-les-Vignes,48.9783,2.0308,7
889,Wittelsheim,47.8053,7.2375,3
890,La Riche,47.3892,0.6606,10
891,Montigny-en-Gohelle,50.4278,2.9297,1
892,Gerzat,45.8258,3.1447,2
893,Douchy-les-Mines,50.3014,3.3933,1
894,Le Pradet,43.1056,6.0233,0
895,Thouaré-sur-Loire,47.2675,-1.4406,10
896,Avranches,48.6844,-1.3569,4
897,Cabestany,42.6806,2.9428,6
898,Parthenay,46.6486,-0.2469,10
899,Neuville-en-Ferrain,50.7467,3.1581,1
900,Jeumont,50.2944,4.1014,1
901,La Chapelle-Saint-Mesmin,47.8897,1.8397,7
902,Dammartin-en-Goële,49.0542,2.6814,7
903,Clermont,49.3789,2.4125,7
904,Villeneuve-lès-Maguelone,43.5322,3.8608,11
905,Chambly,49.1667,2.2481,7
906,Marly,49.0611,6.1497,3
907,Saint-Laurent-de-la-Salanque,42.7736,2.9908,6
908,Fuveau,43.4522,5.5617,0
909,Caudebec-lès-Elbeuf,49.2808,1.0211,4
910,Tinqueux,49.25,3.9908,1
911,Dinard,48.6325,-2.0617,5
912,Aniche,50.33,3.2511,1
913,Châteaugiron,48.0481,-1.5031,5
914,Pont-Audemer,49.3542,0.5139,4
915,Le Taillan-Médoc,44.9044,-0.6697,9
916,Limoux,43.0569,2.2186,6
917,Vernouillet,48.9722,1.9833,7
918,Miribel,45.8244,4.9531,8
919,Buxerolles,46.5975,0.3492,10
920,Mazamet,43.4917,2.3733,6
921,Bourg-de-Péage,45.0378,5.05,8
922,Saint-Gély-du-Fesc,43.6922,3.8061,11
923,Villeneuve-Tolosane,43.5236,1.3417,6
924,La Trinité,43.7408,7.3142,0
925,Saint-Max,48.7011,6.2067,3
926,Pernes-les-Fontaines,43.9978,5.0592,11
927,Brumath,48.7319,7.7083,3
928,Bondues,50.7017,3.0933,1
929,Bernay,49.0886,0.5983,4
930,Eybens,45.1486,5.7503,8
931,Mouans-Sartoux,43.62,6.9719,0
932,Lillers,50.5636,2.4819,1
933,Méry-sur-Oise,49.0636,2.1864,7
934,Ferney-Voltaire,46.2558,6.1081,8
935,Mondeville,49.1739,-0.3211,4
936,Feyzin,45.6728,4.8589,8
937,Blain,47.4761,-1.7636,10
938,Auterive,43.3503,1.4747,6
939,Oignies,50.4692,2.9936,1
940,Cabriès,43.4411,5.3797,11
941,Rombas,49.2494,6.0947,3
942,Saint-Rémy-de-Provence,43.7894,4.8317,11
943,Villerupt,49.4697,5.9286,3
944,Roche-la-Molière,45.4339,4.3236,8
945,Albert,50.0019,2.6522,1
946,Lambesc,43.6539,5.2619,11
947,Portet-sur-Garonne,43.5219,1.4061,6
948,Le Beausset,43.1983,5.8028,0
949,Divonne-les-Bains,46.3567,6.1428,8
950,Ploërmel,47.9317,-2.3975,5
951,Figeac,44.6086,2.0317,6
952,Darnétal,49.4447,1.1511,7
953,Aire-sur-la-Lys,50.6386,2.3967,1
954,Saint-Loubès,44.9172,-0.4281,9
955,Bondoufle,48.6133,2.3806,7
956,Saint-Grégoire,48.1511,-1.6861,5
957,Biot,43.6286,7.0956,0
958,Igny,48.7422,2.2261,7
959,Cosne sur Loire,47.4103,2.925,2
960,Maxéville,48.7114,6.1631,3
961,Fosses,49.0981,2.5067,7
962,Lescar,43.325,-0.4161,9
963,Ézanville,49.0278,2.3608,7
964,Grand-Couronne,49.3575,1.0072,4
965,Dombasle-sur-Meurthe,48.625,6.3497,3
966,Aizenay,46.74,-1.6083,10
967,Grigny,45.6083,4.7897,8
968,Fouesnant,47.8933,-4.0122,5
969,Pfastatt,47.7689,7.3017,3
970,Sallaumines,50.4197,2.8622,1
971,Arques,50.7356,2.3025,1
972,Escaudain,50.3344,3.3428,1
973,Carmaux,44.0492,2.1581,6
974,Saint-Pierre-du-Mont,43.8825,-0.5194,9
975,Neuville-lès-Dieppe,49.9267,1.1014,4
976,Nogent-le-Rotrou,48.3217,0.8217,4
977,Revel,43.4586,2.0042,6
978,Gignac-la-Nerthe,43.3932,5.2356,11
979,Croissy-sur-Seine,48.8778,2.1422,7
980,Loudéac,48.1778,-2.7533,5
981,Merville,50.6439,2.6403,1
982,La Ferté-sous-Jouarre,48.9492,3.1294,7
983,Condé-sur-l’Escaut,50.4492,3.5906,1
984,Bures-sur-Yvette,48.6967,2.1614,7
985,Luçon,46.4547,-1.1658,10
986,Beaumont-sur-Oise,49.1425,2.2864,7
987,Carqueiranne,43.095,6.0736,0
988,Ussel,45.5481,2.3092,2
989,Soyaux,45.6403,0.1978,9
990,Saint-Doulchard,47.0997,2.3728,2
991,Saint-Amand-Montrond,46.7228,2.505,2
992,Saint-Lys,43.5142,1.1775,6
993,Joigny,47.9822,3.3972,7
994,Treillières,47.3308,-1.6267,10
995,Foix,42.9653,1.6069,6
996,Le Passage,44.2014,0.6033,9
997,Valréas,44.3842,4.9903,11
998,Leers,50.6817,3.2439,1
999,Couzeix,45.8761,1.2386,2
1000,La Farlède,43.1678,6.0431,0
1001,Magny-les-Hameaux,48.7239,2.0842,7
1002,Molsheim,48.5428,7.4922,3
1003,Beuvry,50.5197,2.6794,1
1004,Léguevin,43.5989,1.2331,6
1005,Seysses,43.4981,1.3125,6
1006,Le Crès,43.6472,3.9392,11
1007,Jarville-la-Malgrange,48.6694,6.2061,3
1008,Crosne,48.7147,2.4611,7
1009,Ingré,47.9206,1.8242,7
1010,Le Muy,43.4725,6.5664,0
1011,Quétigny,47.3144,5.1061,8
1012,Ouistreham,49.2792,-0.2583,4
1013,Hagondange,49.2542,6.1681,3
1014,Serris,48.8564,2.7861,7
1015,Voreppe,45.2978,5.6369,8
1016,Pia,42.7447,2.9208,6
1017,Saint-Sulpice-la-Pointe,43.7742,1.6864,6
1018,Paray-le-Monial,46.4511,4.1194,8
1019,Aytré,46.1342,-1.1144,10
1020,Saint-Barthélemy-d’Anjou,47.4675,-0.495,10
1021,Vallet,47.1617,-1.2669,10
1022,Gonfreville-l’Orcher,49.5053,0.2331,4
1023,Le Portel,50.7067,1.5733,1
1024,Frouzins,43.5161,1.3247,6
1025,Redon,47.6514,-2.0847,5
1026,Livron-sur-Drôme,44.7728,4.8431,11
1027,Landivisiau,48.5092,-4.0683,5
1028,Belley,45.7592,5.6881,8
1029,Tonneins,44.3897,0.3083,9
1030,Elne,42.6003,2.9711,6
1031,Saint-Claude,46.3872,5.8633,8
1032,Évian-les-Bains,46.4006,6.59,8
1033,Basse-Goulaine,47.2153,-1.4656,10
1034,Gouvieux,49.1878,2.4161,7
1035,Quincy-sous-Sénart,48.6711,2.5339,7
1036,Lorgues,43.4933,6.3611,0
1037,Pérols,43.565,3.9506,11
1038,Le Thor,43.9292,4.9944,11
1039,Saint-Philbert-de-Grand-Lieu,47.035,-1.64,10
1040,Veauche,45.5619,4.2781,8
1041,Vétraz-Monthoux,46.1742,6.255,8
1042,Parempuyre,44.9492,-0.605,9
1043,Clermont-l’Hérault,43.6272,3.4322,11
1044,L’Isle-Jourdain,43.6136,1.0808,6
1045,Mont-Saint-Martin,49.5406,5.7794,3
1046,Lançon-Provence,43.5925,5.1281,11
1047,Séné,47.6197,-2.7372,5
1048,Launaguet,43.6739,1.4569,6
1049,Pithiviers,48.1719,2.2519,7
1050,Ville-la-Grand,46.2022,6.2469,8
1051,Nort-sur-Erdre,47.4394,-1.4983,10
1052,Le Rheu,48.1019,-1.7956,5
1053,Rouvroy,50.3936,2.9039,1
1054,Pierrelaye,49.0225,2.1503,7
1055,Capbreton,43.6419,-1.4322,9
1056,Magny-le-Hongre,48.8631,2.8136,7
1057,Tomblaine,48.6856,6.2117,3
1058,Savenay,47.3607,-1.9422,5
1059,Roquevaire,43.3494,5.6047,0
1060,Monistrol-sur-Loire,45.2925,4.1722,11
1061,La Ferté-Bernard,48.1867,0.6544,4
1062,Lillebonne,49.5208,0.5375,4
1063,Fontaine-lès-Dijon,47.3433,5.0192,8
1064,Grenade,43.7714,1.2931,6
1065,Saint-Paul-Trois-Châteaux,44.3489,4.7686,11
1066,Essey-lès-Nancy,48.7058,6.2222,3
1067,Lamorlaye,49.155,2.4408,7
1068,Onnaing,50.3878,3.5981,1
1069,Saint-Jean-le-Blanc,47.8919,1.9172,7
1070,Scionzier,46.0572,6.55,8
1071,Hirson,49.9217,4.0839,1
1072,Le Teil,44.5453,4.6822,11
1073,Bougival,48.865,2.1394,7
1074,Sarlat-la-Canéda,44.89,1.2167,9
1075,Chaponost,45.7103,4.7422,8
1076,Nangis,48.555,3.0147,7
1077,Aulnoye-Aymeries,50.2047,3.8356,1
1078,Rivesaltes,42.7689,2.8739,6
1079,La Grande-Motte,43.5606,4.085,11
1080,Wingles,50.4942,2.8553,1
1081,Isbergues,50.6233,2.4567,1
1082,Notre-Dame-de-Gravenchon,49.4892,0.5711,4
1083,Domérat,46.3603,2.5344,2
1084,Borgo,42.5539,9.4275,0
1085,Orchies,50.4747,3.2442,1
1086,Cébazat,45.8314,3.1,2
1087,Quéven,47.7886,-3.4153,5
1088,Golbey,48.1958,6.4372,3
1089,Irigny,45.6731,4.8225,8
1090,Les Sorinières,47.1464,-1.53,10
1091,Aucamville,43.6686,1.4306,6
1092,Saint-Jean-d’Illac,44.8097,-0.7836,9
1093,Beauchamp,49.0139,2.19,7
1094,Dardilly,45.8056,4.7531,8
1095,Saint-Jean-de-Monts,46.7928,-2.0603,10
1096,La Fare-les-Oliviers,43.5517,5.1947,11
1097,Vaucresson,48.8425,2.1528,7
1098,Le Petit-Couronne,49.3856,1.0275,4
1099,Artigues-près-Bordeaux,44.8606,-0.4936,9
1100,Chamonix-Mont-Blanc,45.9222,6.8689,8
1101,Guichen,47.9675,-1.795,5
1102,Bellerive-sur-Allier,46.1164,3.4042,2
1103,Chécy,47.8936,2.0269,7
1104,Lesquin,50.5897,3.1111,1
1105,Marguerittes,43.86,4.4439,11
1106,Crest,44.7283,5.0222,11
1107,La Chapelle d’Armentières,50.6728,2.895,1
1108,Saint-Vallier,46.6419,4.3711,8
1109,Velaux,43.5225,5.2539,11
1110,Tournan-en-Brie,48.7406,2.7681,7
1111,Évron,48.1556,-0.4025,4
1112,Grabels,43.6481,3.8017,11
1113,Saint-Chamas,43.5503,5.0347,11
1114,Coutras,45.0408,-0.1289,9
1115,Vif,45.0553,5.67,8
1116,Périgny,46.1528,-1.0964,10
1117,Gretz-Armainvilliers,48.7411,2.7342,7
1118,Morières-lès-Avignon,43.9417,4.9047,11
1119,Groslay,48.9867,2.3444,7
1120,Vendin-le-Vieil,50.4739,2.8661,1
1121,Lempdes,45.7711,3.1936,2
1122,Entraigues-sur-la-Sorgue,44.0031,4.9267,11
1123,Mauléon,46.9228,-0.7497,10
1124,Le Poiré-sur-Vie,46.7686,-1.5083,10
1125,Margny-lès-Compiègne,49.4261,2.8208,1
1126,Thorigné-Fouillard,48.1597,-1.5797,5
1127,Pibrac,43.6169,1.2847,6
1128,La Ravoire,45.5569,5.9664,8
1129,Boucau,43.5236,-1.4867,9
1130,Le Plessis-Bouchard,49.0028,2.2367,7
1131,Sarzeau,47.5272,-2.7697,5
1132,Plabennec,48.5019,-4.4261,5
1133,Le Grau-du-Roi,43.5372,4.1367,11
1134,Aigues-Mortes,43.5667,4.1925,11
1135,Coutances,49.0453,-1.4453,4
1136,Roussillon,45.3719,4.8117,8
1137,Sautron,47.2636,-1.6683,10
1138,Trégueux,48.4906,-2.7381,5
1139,Port-Saint-Louis-du-Rhône,43.3875,4.8044,11
1140,Uzès,44.0125,4.4197,11
1141,Longvic,47.2878,5.0636,8
1142,Pérenchies,50.6681,2.9725,1
1143,Unieux,45.4017,4.2614,8
1144,Venelles,43.5983,5.4825,11
1145,Bandol,43.1364,5.7533,0
1146,La Salvetat-Saint-Gilles,43.5761,1.2714,6
1147,Harfleur,49.5067,0.1981,4
1148,Lège-Cap-Ferret,44.7931,-1.1464,9
1149,Privas,44.735,4.5992,11
1150,Chantonnay,46.6869,-1.0506,10
1151,Breuillet,48.5661,2.1714,7
1152,Libercourt,50.4839,3.0139,1
1153,Audenge,44.6836,-1.0133,9
1154,Bihorel,49.4547,1.1167,7
1155,Linselles,50.7372,3.0794,1
1156,Janzé,47.9606,-1.4992,10
1157,Meythet,45.9153,6.0928,8
1158,Larmor-Plage,47.7064,-3.3842,5
1159,Le Loroux-Bottereau,47.2381,-1.3492,10
1160,Ergué-Gabéric,47.9961,-4.0225,5
1161,Les Angles,43.9544,4.7667,11
1162,Pont-l’Abbé,47.8672,-4.2231,5
1163,Saint-Pierre-lès-Elbeuf,49.2775,1.0406,4
1164,Saint-Aubin-lès-Elbeuf,49.3003,1.0111,4
1165,Crolles,45.285,5.8828,8
1166,Feurs,45.7408,4.2258,8
1167,Jarny,49.1589,5.8772,3
1168,Bormes-les-Mimosas,43.1517,6.3431,0
1169,Le Teich,44.6339,-1.0236,9
1170,Belleville,46.1086,4.7492,8
1171,Châteauneuf-sur-Loire,47.8653,2.2222,7
1172,Peymeinade,43.6422,6.8758,0
1173,Carbon-Blanc,44.8947,-0.5064,9
1174,Marcoussis,48.6417,2.2297,7
1175,Billy-Montigny,50.4181,2.9119,1
1176,Pézenas,43.4594,3.4228,11
1177,Chinon,47.1669,0.2428,10
1178,La Tour-du-Pin,45.5658,5.445,8
1179,Lure,47.6831,6.4967,3
1180,Jouy-en-Josas,48.7681,2.1669,7
1181,Malzéville,48.7103,6.1864,3
1182,Saint-Renan,48.4339,-4.6214,5
1183,Poisy,45.9222,6.0631,8
1184,Les Andelys,49.2456,1.4117,7
1185,Falaise,48.8972,-0.1975,4
1186,Puget-sur-Argens,43.4558,6.6842,0
1187,Soustons,43.7514,-1.3294,9
1188,Ballan-Miré,47.3417,0.6131,10
1189,Vern-sur-Seiche,48.0447,-1.6003,5
1190,Tonnay-Charente,45.9436,-0.8914,10
1191,Donges,47.3231,-2.0761,5
1192,Mazingarbe,50.4731,2.7181,1
1193,Saint-Affrique,43.9583,2.8864,6
1194,Reignier,46.1344,6.2683,8
1195,Chartres-de-Bretagne,48.0394,-1.7039,5
1196,L’Aigle,48.765,0.6275,4
1197,L’Île-Saint-Denis,48.9358,2.3397,7
1198,Languidic,47.8333,-3.1578,5
1199,Souffelweyersheim,48.635,7.7408,3
1200,Pégomas,43.5967,6.9333,0
1201,Champagnole,46.7472,5.9072,8
1202,Guilers,48.4256,-4.5581,5
1203,La Ville-du-Bois,48.6606,2.2692,7
1204,Éguilles,43.5686,5.3542,11
1205,Villars,45.4689,4.3544,8
1206,Le Mesnil-Esnard,49.4108,1.1419,7
1207,Trignac,47.3181,-2.1892,5
1208,Claix,45.1197,5.6717,8
1209,Courcelles-les-Lens,50.4181,3.0181,1
1210,Bouaye,47.1436,-1.6889,10
1211,Cappelle-la-Grande,50.9983,2.3642,1
1212,Biguglia,42.6183,9.4361,0
1213,La Ricamarie,45.4031,4.3644,8
1214,La Colle-sur-Loup,43.6864,7.1039,0
1215,Achicourt,50.2733,2.7594,1
1216,Vert-Saint-Denis,48.5669,2.6219,7
1217,Sorbiers,45.4878,4.4503,8
1218,Aureilhan,43.2439,0.0967,9
1219,Meximieux,45.9044,5.1944,8
1220,Vineuil,47.5806,1.3725,7
1221,Monts,47.2747,0.6428,10
1222,Céret,42.4881,2.7514,6
1223,Saint-Rémy-lès-Chevreuse,48.7058,2.0719,7
1224,Gérardmer,48.0722,6.8786,3
1225,Romagnat,45.7294,3.1006,2
1226,Thuir,42.6319,2.7564,6
1227,Saint-Marcellin,45.1517,5.3197,8
1228,Marseillan,43.3564,3.5278,11
1229,Seyssins,45.1561,5.6797,8
1230,Isle,45.8042,1.2264,2
1231,Digoin,46.4819,3.9806,8
1232,Langueux,48.495,-2.7175,5
1233,Houplines,50.6908,2.9092,1
1234,Liffré,48.2136,-1.5081,5
1235,Boussy-Saint-Antoine,48.6908,2.5325,7
1236,Saint-Gilles-Croix-de-Vie,46.6975,-1.9444,10
1237,La Couronne,45.6075,0.1,9
1238,Le Soler,42.6819,2.7933,6
1239,Talmont-Saint-Hilaire,46.4672,-1.6183,10
1240,Talange,49.2367,6.1744,3
1241,Wavrin,50.5739,2.9389,1
1242,Questembert,47.6614,-2.4531,5
1243,Thann,47.8067,7.1044,3
1244,Tullins,45.2975,5.4833,8
1245,Baillargues,43.6611,4.0128,11
1246,Langres,47.8625,5.3331,3
1247,Remiremont,48.0169,6.59,3
1248,Émerainville,48.81,2.6228,7
1249,Hettange-Grande,49.4058,6.1531,3
1250,Doué-la-Fontaine,47.1931,-0.2756,10
1251,Saint-Jean-de-Maurienne,45.2767,6.345,8
1252,Moirans,45.325,5.5644,8
1253,Saint-Vincent-de-Tyrosse,43.6611,-1.3042,9
1254,Moyeuvre-Grande,49.2528,6.0458,3
1255,Beynes,48.8564,1.8728,7
1256,Wintzenheim,48.0731,7.29,3
1257,Mably,46.0858,4.0647,8
1258,Sausset-les-Pins,43.3322,5.1139,11
1259,Pluvigner,47.7758,-3.0103,5
1260,Rosporden,47.9606,-3.8347,5
1261,Montlhéry,48.6386,2.2722,7
1262,Saint-Péray,44.9486,4.845,11
1263,Auxonne,47.1939,5.3878,8
1264,Geispolsheim,48.515,7.6464,3
1265,Barlin,50.4553,2.6186,1
1266,Coulaines,48.0267,0.2042,4
1267,Ballancourt,48.5256,2.3856,7
1268,Péronne,49.9322,2.9364,1
1269,Saint-Apollinaire,47.3317,5.0842,8
1270,Sisteron,44.19,5.9464,0
1271,Noisy-le-Roi,48.8464,2.06,7
1272,Rochefort-du-Gard,43.9744,4.6903,11
1273,Neuville-sur-Saône,45.8761,4.8411,8
1274,Charnay-lès-Mâcon,46.3092,4.7844,8
1275,Déols,46.83,1.7058,2
1276,Thaon-les-Vosges,48.2506,6.42,3
1277,Saint-Denis-en-Val,47.8772,1.96,7
1278,Fresnes-sur-Escaut,50.4336,3.5769,1
1279,Bessancourt,49.0378,2.2133,7
1280,Rethel,49.5097,4.3675,1
1281,Ensisheim,47.8656,7.3525,3
1282,Montreuil-Juigné,47.5283,-0.6119,10
1283,Wissembourg,49.0375,7.9461,3
1284,Ancenis,47.3728,-1.1783,10
1285,Paray-Vieille-Poste,48.7081,2.3628,7
1286,Cavalaire-sur-Mer,43.1711,6.5292,0
1287,Martignas-sur-Jalle,44.8406,-0.7756,9
1288,Gargenville,48.9919,1.8103,7
1289,Saint-Germain-lès-Corbeil,48.6206,2.4892,7
1290,Nieppe,50.7031,2.8389,1
1291,Malemort-sur-Corrèze,45.1708,1.5639,2
1292,Gleizé,45.9892,4.6969,8
1293,Corte,42.3056,9.1506,0
1294,Saint-Nicolas-de-Port,48.6308,6.3022,3
1295,Lodève,43.7317,3.3194,11
1296,Coulounieix,45.1864,0.6914,9
1297,Beaupréau,47.2019,-0.9944,10
1298,Anse,45.9356,4.7194,8
1299,La Ferté-Saint-Aubin,47.7172,1.9414,7
1300,Contes,43.8119,7.3139,0
1301,Waziers,50.3872,3.1131,1
1302,Saint-Aubin-de-Médoc,44.9119,-0.7253,9
1303,Crozon,48.2453,-4.4889,5
1304,Bailly-Romainvilliers,48.8469,2.8231,7
1305,Bassens,44.9033,-0.5169,9
1306,Clisson,47.0869,-1.2836,10
1307,Tignieu,45.7339,5.1872,8
1308,Pontcharra,45.4331,6.0153,8
1309,Langon,44.5531,-0.2494,9
1310,Mordelles,48.0747,-1.8458,5
1311,Lisses,48.5978,2.4264,7
1312,Sainte-Adresse,49.5064,0.0833,4
1313,Saint-Berthevin,48.0683,-0.8258,4
1314,Guénange,49.2978,6.1978,3
1315,Pignan,43.5842,3.7619,11
1316,Bain-de-Bretagne,47.8422,-1.6819,5
1317,Saint-Yrieix-sur-Charente,45.6753,0.1275,9
1318,Beaugency,47.7783,1.6317,7
1319,Bompas,42.7311,2.9333,6
1320,Lesneven,48.5719,-4.3222,5
1321,La Verpillière,45.6369,5.1428,8
1322,Vizille,45.0783,5.7719,8
1323,Wissous,48.7308,2.3272,7
1324,Saint-Étienne-de-Montluc,47.2764,-1.7803,10
1325,Bellegarde,43.7536,4.5144,11
1326,Saint-Benoît,46.5497,0.3417,10
1327,Publier,46.3878,6.5442,8
1328,Auby,50.4153,3.0544,1
1329,Bourg-Saint-Maurice,45.6167,6.7686,8
1330,Migennes,47.9647,3.5167,7
1331,Ruelle-sur-Touvre,45.6778,0.2203,9
1332,Yssingeaux,45.1428,4.1236,11
1333,Huningue,47.5914,7.5831,3
1334,Châteaubourg,48.1111,-1.4033,4
1335,Soisy-sur-Seine,48.6469,2.4522,7
1336,Leforest,50.4372,3.0642,1
1337,Pordic,48.5703,-2.8171,5
1338,Barr,48.4081,7.4497,3
1339,Salles,44.5519,-0.8694,9
1340,Saint-Maixent-l’École,46.4128,-0.2081,10
1341,Chemillé,47.2131,-0.7258,10
1342,Aussonne,43.6839,1.3197,6
1343,Houdain,50.4522,2.5372,1
1344,Paimpol,48.7778,-3.0464,5
1345,Villard-Bonnot,45.2381,5.8883,8
1346,Lagnieu,45.9036,5.3492,8
1347,Hasparren,43.3844,-1.3047,9
1348,Bourbourg,50.9464,2.1978,1
1349,Boulazac,45.1819,0.7631,9
1350,Bourg-Saint-Andéol,44.3733,4.6442,11
1351,Carhaix-Plouguer,48.2758,-3.5744,5
1352,Lésigny,48.7442,2.6158,7
1353,Montoir-de-Bretagne,47.3283,-2.1492,5
1354,Saujon,45.6714,-0.9278,10
1355,Écouen,49.0186,2.3811,7
1356,Fabrègues,43.5503,3.7761,11
1357,Honfleur,49.4189,0.2331,4
1358,Mimizan,44.2008,-1.2286,9
1359,Lagord,46.1894,-1.1542,10
1360,Saint-Prix,49.0067,2.2625,7
1361,Saint-Julien-de-Concelles,47.2533,-1.3856,10
1362,Terville,49.3444,6.1342,3
1363,Bagnères-de-Bigorre,43.0642,0.1497,9
1364,Jurançon,43.2872,-0.3881,9
1365,Lanton,44.7039,-1.0353,9
1366,Sucé-sur-Erdre,47.3333,-1.5333,10
1367,Ugine,45.7528,6.4197,8
1368,Fontaines-sur-Saône,45.8358,4.845,8
1369,Perros-Guirec,48.8133,-3.4433,5
1370,Soultz-Haut-Rhin,47.8858,7.2292,3
1371,Louveciennes,48.8603,2.1164,7
1372,Sérignan,43.28,3.2775,6
1373,Chauvigny,46.5686,0.6467,10
1374,Chauray,46.3606,-0.3772,10
1375,Saint-Christol-lez-Alès,44.0844,4.0769,11
1376,Bétheny,49.2847,4.0569,1
1377,Trégunc,47.8558,-3.8519,5
1378,Villemoisson-sur-Orge,48.6653,2.3308,7
1379,Toulouges,42.6706,2.8319,6
1380,Les Arcs,43.4633,6.4789,0
1381,Saint-Macaire-en-Mauges,47.1239,-0.9917,10
1382,Cassis,43.2156,5.5372,0
1383,Saint-Ismier,45.2486,5.8269,8
1384,Guingamp,48.5625,-3.1511,5
1385,Vaujours,48.9339,2.5719,7
1386,Notre-Dame-de-Bondeville,49.4883,1.0483,4
1387,Eckbolsheim,48.5789,7.6897,3
1388,Divion,50.4722,2.5014,1
1389,Audun-le-Tiche,49.4733,5.9578,3
1390,Gières,45.1819,5.7919,8
1391,Escalquens,43.5178,1.5608,6
1392,Liancourt,49.3308,2.4653,7
1393,Saint-Didier-au-Mont-d’Or,45.8106,4.7986,8
1394,Gueugnon,46.6011,4.0608,8
1395,Theix,47.6292,-2.6558,5
1396,Faverges,45.7467,6.2939,8
1397,Colombelles,49.2042,-0.2972,4
1398,Segré,47.6864,-0.8725,10
1399,La Talaudière,45.4814,4.4319,8
1400,Sénas,43.7444,5.0786,11
1401,Herbignac,47.4489,-2.3175,5
1402,Téteghem,51.0186,2.4439,1
1403,Eyguières,43.6953,5.0311,11
1404,Montluel,45.8517,5.0564,8
1405,Pleurtuit,48.5797,-2.0583,5
1406,Cranves-Sales,46.1867,6.2914,8
1407,Morteau,47.0581,6.6061,3
1408,Gaillon,49.1603,1.3358,7
1409,Bidart,43.4369,-1.5931,9
1410,Caudan,47.8089,-3.3425,5
1411,Saint-Pierre,46.0597,6.3725,8
1412,Sainte-Pazanne,47.1031,-1.8108,10
1413,Saint-Pée-sur-Nivelle,43.3567,-1.5506,9
1414,Saint-Jean-d’Angély,45.9442,-0.5211,10
1415,Trévoux,45.9408,4.775,8
1416,Le Coteau,46.0272,4.0867,8
1417,Gournay-sur-Marne,48.8597,2.5764,7
1418,Saint-Bonnet-de-Mure,45.6906,5.0292,8
1419,Manduel,43.8183,4.4733,11
1420,Chabeuil,44.8997,5.02,11
1421,Balaruc-les-Bains,43.4408,3.6772,11
1422,Cornebarrieu,43.6494,1.3264,6
1423,Auvers-sur-Oise,49.0717,2.1742,7
1424,Saint-Just-sur-Loire,45.5003,4.2406,8
1425,Loos-en-Gohelle,50.4578,2.7933,1
1426,Feignies,50.3022,3.9181,1
1427,Grenay,50.4522,2.7431,1
1428,Nérac,44.1361,0.3394,9
1429,Caussade,44.1617,1.5369,6
1430,Uckange,49.3025,6.1553,3
1431,Valognes,49.5092,-1.4692,4
1432,Beuvrages,50.3858,3.5056,1
1433,Trélissac,45.1958,0.7825,9
1434,Ustaritz,43.3994,-1.4564,9
1435,La Gaude,43.7219,7.1531,0
1436,Le Mesnil-Saint-Denis,48.7436,1.9631,7
1437,Quesnoy-sur-Deûle,50.7125,2.9994,1
1438,Acigné,48.1342,-1.5367,5
1439,Linas,48.6333,2.2672,7
1440,Melesse,48.2172,-1.6961,5
1441,Saint-Julien-les-Villas,48.2714,4.0975,7
1442,Jacou,43.6608,3.9103,11
1443,Surgères,46.1081,-0.7517,10
1444,Bouchemaine,47.4223,-0.6089,10
1445,Nyons,44.3608,5.1406,11
1446,Eu,50.0472,1.4197,7
1447,Villemandeur,47.9903,2.7094,7
1448,Moëlan-sur-Mer,47.8142,-3.6281,5
1449,Saint-Juéry,43.9486,2.2094,6
1450,Plédran,48.4458,-2.7461,5
1451,Loudun,47.01,0.0836,10
1452,Othis,49.0764,2.6764,7
1453,Le Pian-Médoc,44.955,-0.6697,9
1454,Saint-Yrieix-la-Perche,45.5144,1.2033,2
1455,Labenne,43.5928,-1.4267,9
1456,Champigneulles,48.7336,6.1644,3
1457,Domène,45.2025,5.8389,8
1458,Luxeuil-les-Bains,47.8161,6.3808,3
1459,Montfort-sur-Meu,48.1381,-1.9558,5
1460,Les Essarts-le-Roi,48.7167,1.8944,7
1461,Saint-Pierre-d’Oléron,45.9436,-1.3058,10
1462,Beaufort-en-Vallée,47.4394,-0.2156,10
1463,Brioude,45.2942,3.3842,2
1464,Beauzelle,43.6653,1.3775,6
1465,Luisant,48.4317,1.4764,7
1466,Courtry,48.9175,2.6031,7
1467,Rosny-sur-Seine,48.9997,1.6317,7
1468,Le Perray-en-Yvelines,48.6942,1.8542,7
1469,Neuves-Maisons,48.6161,6.1036,3
1470,Courdimanche,49.0344,2.0014,7
1471,Noyelles-sous-Lens,50.4306,2.8728,1
1472,Étréchy,48.4931,2.1911,7
1473,Neufchâteau,48.3556,5.6961,3
1474,Saint-Rambert-d’Albon,45.2939,4.8169,8
1475,Ambert,45.5494,3.7417,2
1476,Saint-Victoret,43.4208,5.2333,11
1477,Brech,47.7206,-2.9956,5
1478,Saint-Jean-Bonnefonds,45.4511,4.4464,8
1479,Plouguerneau,48.6058,-4.5042,5
1480,Kervignac,47.7633,-3.2389,5
1481,Saint-Rémy,46.7633,4.8375,8
1482,Sury-le-Comtal,45.5375,4.1831,8
1483,Givet,50.1381,4.8242,1
1484,Cambo-les-Bains,43.3578,-1.4017,9
1485,Rives,45.3508,5.5022,8
1486,Loriol-sur-Drôme,44.7517,4.8225,11
1487,Behren-lès-Forbach,49.1739,6.9347,3
1488,Saint-Pol-de-Léon,48.6853,-3.9864,5
1489,Verneuil-sur-Avre,48.7389,0.9278,4
1490,Ploeren,47.6561,-2.8667,5
1491,Thônes,45.8822,6.3256,8
1492,La Tronche,45.2064,5.7403,8
1493,Le Péage-de-Roussillon,45.3731,4.7975,8
1494,Mehun-sur-Yèvre,47.1453,2.2158,2
1495,Frouard,48.7606,6.1289,3
1496,Carnoux-en-Provence,43.2564,5.5644,0
1497,Jœuf,49.2297,6.0089,3
1498,Limours,48.6456,2.0761,7
1499,Saint-André-des-Eaux,47.3139,-2.3108,5
1500,Viriat,46.2536,5.2167,8
1501,La Verrière,48.7586,1.9622,7
1502,Gémenos,43.2961,5.6269,0
1503,Changé,47.9878,0.2819,4
1504,La Bassée,50.5336,2.8072,1
1505,Laneuveville-devant-Nancy,48.6553,6.2314,3
1506,Itteville,48.5142,2.3419,7
1507,Meung-sur-Loire,47.8286,1.6983,7
1508,Chalonnes-sur-Loire,47.3506,-0.7639,10
1509,Avallon,47.49,3.9083,7
1510,Péronnas,46.1786,5.2028,8
1511,Condom,43.9575,0.3725,9
1512,Labruguière,43.5392,2.2633,6
1513,Épône,48.9558,1.8153,7
1514,Cormontreuil,49.2228,4.0519,1
1515,Orgeval,48.9206,1.9758,7
1516,Montauroux,43.6183,6.7653,0
1517,Castelnau-d’Estrétefonds,43.7822,1.3583,6
1518,Parentis-en-Born,44.3494,-1.0744,9
1519,Sainte-Livrade-sur-Lot,44.3981,0.5894,9
1520,Saint-Florent-sur-Cher,46.9956,2.2517,2
1521,Bouffémont,49.0433,2.2992,7
1522,Gigean,43.4997,3.7111,11
1523,La Penne-sur-Huveaune,43.2806,5.5158,0
1524,Villers-Saint-Paul,49.2889,2.4872,7
1525,La Mulatière,45.7281,4.8122,8
1526,Bonsecours,49.4278,1.1278,7
1527,Cuincy,50.3822,3.0467,1
1528,Estaires,50.6439,2.7231,1
1529,L’Arbresle,45.8356,4.6169,8
1530,Marignier,46.0903,6.4997,8
1531,Saint-Girons,42.9847,1.1458,6
1532,Montech,43.9569,1.2297,6
1533,Louvroil,50.265,3.96,1
1534,Brunstatt,47.7233,7.3228,3
1535,Saint-Thibault-des-Vignes,48.8692,2.6886,7
1536,Fouquières-lès-Lens,50.4286,2.9128,1
1537,Louhans,46.6264,5.2247,8
1538,Ceyrat,45.7328,3.0633,2
1539,Veigné,47.2875,0.7375,10
1540,Puilboreau,46.1858,-1.1172,10
1541,Saint-Flour,45.0336,3.0928,2
1542,Jassans-Riottier,45.9856,4.7567,8
1543,Wimereux,50.7697,1.61,1
1544,Quiévrechain,50.3953,3.6669,1
1545,Arès,44.765,-1.1367,9
1546,Mourenx,43.3706,-0.6294,9
1547,Gignac,43.6519,3.5511,11
1548,Esbly,48.9031,2.8125,7
1549,Machecoul,46.9931,-1.8228,10
1550,Petite-Rosselle,49.2117,6.8575,3
1551,Marsillargues,43.6644,4.1769,11
1552,Marange-Silvange,49.2108,6.1039,3
1553,Le Blanc,46.6336,1.0628,2
1554,Laudun-l’Ardoise,44.105,4.6575,11
1555,Brindas,45.7211,4.6936,8
1556,Corbie,49.9089,2.5072,1
1557,Bouillargues,43.8003,4.4269,11
1558,Saint-Marcel-lès-Valence,44.9708,4.9567,11
1559,Lallaing,50.39,3.1681,1
1560,Raon-l’Étape,48.4058,6.8411,3
1561,Le Mesnil-le-Roi,48.9281,2.1225,7
1562,Champagne-sur-Seine,48.3972,2.8011,7
1563,Ploudalmézeau,48.5403,-4.6575,5
1564,Thyez,46.0836,6.5411,8
1565,Vendargues,43.6578,3.9694,11
1566,Lutterbach,47.7597,7.2806,3
1567,Jaunay-Clan,46.6856,0.37,10
1568,Longpont-sur-Orge,48.6428,2.2917,7
1569,Labarthe-sur-Lèze,43.4517,1.4,6
1570,Hombourg-Haut,49.1258,6.7781,3
1571,Cournonterral,43.5578,3.7189,11
1572,Sathonay-Camp,45.8247,4.8744,8
1573,Cognin,45.5619,5.8972,8
1574,Hersin-Coupigny,50.4461,2.6478,1
1575,Bréal-sous-Montfort,48.0478,-1.8667,5
1576,Ambilly,46.195,6.2242,8
1577,La Montagne,47.19,-1.6839,10
1578,Pavilly,49.5683,0.9536,4
1579,La Bouilladisse,43.3953,5.5953,0
1580,Castries,43.6789,3.9814,11
1581,Homécourt,49.2231,5.9928,3
1582,Baud,47.8756,-3.0189,5
1583,Arpajon-sur-Cère,44.9039,2.4567,2
1584,Saulx-les-Chartreux,48.6922,2.2664,7
1585,Embrun,44.565,6.4953,0
1586,Eaunes,43.4217,1.3544,6
1587,Terrasson-Lavilledieu,45.13,1.3014,2
1588,Loches,47.1286,0.9953,2
1589,Lezoux,45.8275,3.38,2
1590,Ciboure,43.3853,-1.6678,9
1591,Nanteuil-lès-Meaux,48.9297,2.8969,7
1592,Cadaujac,44.7556,-0.53,9
1593,Mer,47.6986,1.5078,7
1594,Canohès,42.6519,2.8344,6
1595,Templeuve,50.5267,3.175,1
1596,Pont-Saint-Martin,47.1236,-1.5844,10
1597,Châtel-Guyon,45.9225,3.0642,2
1598,Saint-Maurice-l’Exil,45.3969,4.7747,8
1599,Sciez,46.3319,6.3739,8
1600,Trith-Saint-Léger,50.3256,3.4858,1
1601,Saint-Alban,43.6919,1.4147,6
1602,Bon-Encontre,44.1864,0.6719,9
1603,Grandchamps-des-Fontaines,47.365,-1.6053,10
1604,Nandy,48.5842,2.5661,7
1605,Montdidier,49.6481,2.57,1
1606,Elven,47.7314,-2.5906,5
1607,Héric,47.4125,-1.6517,10
1608,Gouesnou,48.4536,-4.4644,5
1609,Fronton,43.8403,1.3894,6
1610,Saint-Genest-Lerpt,45.4461,4.3367,8
1611,Commentry,46.2889,2.7417,2
1612,Châtenoy-le-Royal,46.7942,4.8164,8
1613,Plonéour-Lanvern,47.9031,-4.2839,5
1614,Saint-Alban-Leysse,45.58,5.9581,8
1615,Algrange,49.3594,6.0483,3
1616,Guer,47.9039,-2.1206,5
1617,Loon-Plage,50.9942,2.2197,1
1618,Lentilly,45.8186,4.6631,8
1619,Ludres,48.6217,6.1617,3
1620,Tain-l’Hermitage,45.0706,4.8425,8
1621,Chasse-sur-Rhône,45.5806,4.8,8
1622,Changé,48.1,-0.7908,4
1623,Aurec-sur-Loire,45.3692,4.2017,8
1624,Migné,46.6267,0.3136,10
1625,Mazan,44.0567,5.1281,11
1626,Malaunay,49.5261,1.0403,4
1627,Aire-sur-l’Adour,43.7031,-0.2628,9
1628,Feytiat,45.8094,1.3317,2
1629,Saint-Marcel,46.7756,4.8894,8
1630,Magnanville,48.9672,1.6819,7
1631,Horbourg,48.0794,7.3944,3
1632,Lavelanet,42.9328,1.8486,6
1633,Blanzy,46.7039,4.3903,8
1634,Vigneux-de-Bretagne,47.3261,-1.7383,10
1635,Égly,48.5806,2.2239,7
1636,Saint-Pathus,49.0706,2.7997,7
1637,Saint-Priest-en-Jarez,45.4742,4.3781,8
1638,Roost-Warendin,50.4203,3.1056,1
1639,Malesherbes,48.2964,2.4053,7
1640,Sarrians,44.0833,4.9711,11
1641,Bonchamp-lès-Laval,48.0742,-0.7014,4
1642,Mallemort,43.7308,5.1794,11
1643,Saint-Quentin-Fallavier,45.6322,5.1106,8
1644,Sains-en-Gohelle,50.4447,2.6836,1
1645,Douvaine,46.305,6.3036,8
1646,La Glacerie,49.6142,-1.6042,4
1647,Noyal-sur-Vilaine,48.1117,-1.5244,5
1648,Pierrefeu-du-Var,43.2244,6.1453,0
1649,Prades,42.6172,2.4219,6
1650,Saint-André-de-Sangonis,43.6497,3.5036,11
1651,Esvres,47.2844,0.7861,10
1652,Gournay-en-Bray,49.4806,1.7239,7
1653,Pecquencourt,50.3772,3.2158,1
1654,Mornant,45.6189,4.6722,8
1655,Mutzig,48.5386,7.4542,3
1656,Le Palais-sur-Vienne,45.8642,1.3231,2
1657,Revin,49.9425,4.6386,1
1658,Saint-Just-en-Chaussée,49.5061,2.4308,7
1659,Mortagne-sur-Sèvre,46.9917,-0.9539,10
1660,Plescop,47.6989,-2.8061,5
1661,Doullens,50.1567,2.3403,1
1662,Saint-Zacharie,43.3842,5.7067,0
1663,Jonage,45.7964,5.0467,8
1664,Vezin-le-Coquet,48.1186,-1.7561,5
1665,Nogent-sur-Seine,48.4936,3.5025,7
1666,Octeville-sur-Mer,49.5558,0.1169,4
1667,La Primaube,44.3139,2.535,6
1668,Poussan,43.4886,3.67,11
1669,Fleurance,43.8494,0.6636,9
1670,Thoiry,46.2364,5.9797,8
1671,Le Lavandou,43.1378,6.3678,0
1672,Saint-Mandrier-sur-Mer,43.0761,5.9278,0
1673,Vouneuil-sous-Biard,46.5731,0.2714,10
1674,Liverdun,48.7503,6.0619,3
1675,Chessy,48.8803,2.7633,7
1676,Villemur-sur-Tarn,43.8656,1.505,6
1677,Saint-Jean-de-Boiseau,47.1942,-1.7247,10
1678,Sainte-Sigolène,45.2431,4.2347,11
1679,Vaison-la-Romaine,44.2408,5.075,11
1680,Montauban-de-Bretagne,48.1992,-2.0481,5
1681,Combourg,48.4086,-1.7517,5
1682,Blainville-sur-Orne,49.2289,-0.3,4
1683,Saint-Pryvé-Saint-Mesmin,47.8808,1.8678,7
1684,Dourges,50.4361,2.9867,1
1685,Saint-Hilaire-du-Harcouët,48.5778,-1.0919,4
1686,Fontenilles,43.5531,1.1911,6
1687,Montmorillon,46.4261,0.8708,2
1688,Saint-Arnoult-en-Yvelines,48.5717,1.9406,7
1689,Naintré,46.7636,0.4864,10
1690,Palavas-les-Flots,43.5294,3.9306,11
1691,Saint-Jory,43.7422,1.3697,6
1692,Vaugneray,45.7378,4.6564,8
1693,Roquefort-la-Bédoule,43.2475,5.5908,0
1694,Lucciana,42.5458,9.4172,0
1695,Oraison,43.9172,5.9186,0
1696,Bruguières,43.7242,1.4114,6
1697,Le Barcarès,42.7883,3.0356,6
1698,Bois-le-Roi,48.4736,2.6972,7
1699,Izon,44.9203,-0.3619,9
1700,Trans-en-Provence,43.5033,6.4861,0
1701,Maule,48.9089,1.8483,7
1702,Merville,43.7214,1.2978,6
1703,Donzère,44.4436,4.71,11
1704,Pont-de-Chéruy,45.7506,5.1731,8
1705,Annezin,50.5336,2.6183,1
1706,Châtelaillon-Plage,46.0731,-1.0881,10
1707,Noves,43.8769,4.9014,11
1708,Saint-Jorioz,45.8336,6.1639,8
1709,Coursan,43.2325,3.0589,6
1710,Canéjan,44.7631,-0.6547,9
1711,Buc,48.7733,2.1253,7
1712,Aussillon,43.4983,2.365,6
1713,Carentan,49.3033,-1.2483,4
1714,Saint-Denis-lès-Bourg,46.1997,5.1922,8
1715,Grézieu-la-Varenne,45.7472,4.6903,8
1716,La Wantzenau,48.6581,7.8283,3
1717,Haute-Goulaine,47.1989,-1.4286,10
1718,Calvisson,43.785,4.1922,11
1719,Le Poinçonnet,46.7639,1.7189,2
1720,Noyelles-Godault,50.42,2.9939,1
1721,Gannat,46.1,3.1983,2
1722,Aixe-sur-Vienne,45.7964,1.1361,2
1723,Ablon-sur-Seine,48.7256,2.4211,7
1724,Vendenheim,48.6675,7.7131,3
1725,Flers-en-Escrebieux,50.3978,3.0625,1
1726,Lannemezan,43.1239,0.3847,9
1727,La Ferté-Macé,48.5925,-0.3572,4
1728,Lesparre-Médoc,45.3069,-0.9378,9
1729,Saint-Mitre-les-Remparts,43.455,5.0142,11
1730,Saint-Martin-le-Vinoux,45.2031,5.7164,8
1731,Meyreuil,43.4861,5.4956,11
1732,Pluneret,47.6756,-2.9575,5
1733,La Crèche,46.3608,-0.3,10
1734,Saint-Symphorien-d’Ozon,45.6328,4.8564,8
1735,Bédarieux,43.6159,3.1588,6
1736,Fayence,43.6233,6.6939,0
1737,Nouzonville,49.815,4.745,1
1738,Saintry-sur-Seine,48.5908,2.4969,7
1739,Benfeld,48.3706,7.5922,3
1740,Carry-le-Rouet,43.3319,5.1519,11
1741,Grand-Charmont,47.5272,6.8236,3
1742,Menucourt,49.0272,1.9814,7
1743,Carbonne,43.2972,1.2192,6
1744,Magny-en-Vexin,49.1544,1.7867,7
1745,Le Puy-Sainte-Réparade,43.6633,5.4372,11
1746,Lèves,48.4689,1.4814,7
1747,Seloncourt,47.4606,6.8583,3
1748,Saint-Galmier,45.59,4.3172,8
1749,Fegersheim,48.4906,7.6803,3
1750,Vias,43.3128,3.4186,11
1751,Plouay,47.9147,-3.3353,5
1752,Courthézon,44.0875,4.8842,11
1753,Riantec,47.7108,-3.3106,5
1754,Saint-Cyr-au-Mont-d’Or,45.8144,4.8181,8
1755,Nieul-sur-Mer,46.2067,-1.1636,10
1756,Aubignan,44.0997,5.0253,11
1757,Milhaud,43.7897,4.3075,11
1758,Jouars-Pontchartrain,48.8031,1.9014,7
1759,Dol-de-Bretagne,48.5497,-1.7508,5
1760,Ernée,48.2969,-0.9328,4
1761,Roye,49.7,2.7903,1
1762,Rungis,48.7483,2.3497,7
1763,Bons-en-Chablais,46.2644,6.3703,8
1764,Simiane-Collongue,43.4311,5.4325,11
1765,Altkirch,47.6231,7.2394,3
1766,Solliès-Toucas,43.2056,6.025,0
1767,Longueau,49.8703,2.3561,1
1768,La Chevrolière,47.0908,-1.6119,10
1769,Le Valdahon,47.1497,6.3447,3
1770,Port-la-Nouvelle,43.0206,3.0433,6
1771,Aimargues,43.6847,4.2086,11
1772,Delle,47.5069,6.9981,3
1773,Fontenay-Trésigny,48.7075,2.8694,7
1774,Saint-Cannat,43.6214,5.2981,11
1775,Bohain-en-Vermandois,49.9864,3.4547,1
1776,Briey,49.2486,5.9394,3
1777,Santes,50.5933,2.9622,1
1778,Calvi,42.5678,8.7567,0
1779,Rabastens,43.8222,1.7253,6
1780,Dainville,50.2819,2.7272,1
1781,Wormhout,50.8828,2.4678,1
1782,Bannalec,47.9325,-3.6969,5
1783,Wasselonne,48.6372,7.4481,3
1784,Saint-Denis-de-Pile,44.9917,-0.2061,9
1785,Marly-la-Ville,49.0808,2.4994,7
1786,Mondelange,49.2625,6.1686,3
1787,Lannilis,48.5697,-4.5194,5
1788,Chevreuse,48.7075,2.0383,7
1789,Saint-Sébastien-de-Morsent,49.0086,1.0894,7
1790,Les Avenières,45.6358,5.5633,8
1791,Mûrs-Erigné,47.3986,-0.5372,10
1792,Nègrepelisse,44.0753,1.5217,6
1793,La Gorgue,50.6383,2.7142,1
1794,Marennes,45.8225,-1.1053,10
1795,Briec,48.1017,-4.0017,5
1796,Belin-Béliet,44.4975,-0.79,9
1797,Saint-Martin-de-Seignanx,43.5428,-1.3869,9
1798,Ambazac,45.9578,1.4,2
1799,Furiani,42.6567,9.4331,0
1800,Guînes,50.8678,1.8736,1
1801,Chatuzange-le-Goubet,45.0067,5.0908,8
1802,Chambourcy,48.9061,2.0403,7
1803,Marnaz,46.0592,6.5258,8
1804,Montpon-Ménestérol,45.0092,0.1592,9
1805,La Chapelle-Basse-Mer,47.2717,-1.3381,10
1806,Flines-lès-Raches,50.4267,3.1831,1
1807,Beaurains,50.2631,2.7886,1
1808,L’Isle-d’Espagnac,45.6614,0.1997,9
1809,Épernon,48.6108,1.6742,7
1810,Boulay-Moselle,49.1833,6.4936,3
1811,Saint-Gervais-les-Bains,45.8925,6.7136,8
1812,Boé,44.1597,0.6286,9
1813,Marolles-en-Hurepoix,48.5625,2.2983,7
1814,Les Essarts,46.7736,-1.2281,10
1815,Challes-les-Eaux,45.5475,5.9839,8
1816,Prades-le-Lez,43.6989,3.8647,11
1817,Saint-André-de-la-Roche,43.74,7.2878,0
1818,Parmain,49.1147,2.2086,7
1819,Champagne-au-Mont-d’Or,45.7947,4.7908,8
1820,Wallers,50.3753,3.3919,1
1821,Trèbes,43.2097,2.4414,6
1822,Gan,43.2286,-0.3875,9
1823,La Cadière-d’Azur,43.1958,5.7556,0
1824,Marles-les-Mines,50.5022,2.5022,1
1825,Fismes,49.3072,3.6806,1
1826,Dompierre-sur-Mer,46.1878,-1.065,10
1827,Mouroux,48.8225,3.0381,7
1828,Le Barp,44.6061,-0.7678,9
1829,Pouzauges,46.7822,-0.8372,10
1830,Peypin,43.3858,5.5783,0
1831,Bethoncourt,47.5344,6.8039,3
1832,Douvrin,50.51,2.8317,1
1833,La Ville-aux-Dames,47.3958,0.7644,10
1834,Gray,47.4442,5.5914,3
1835,Chagny,46.9106,4.7533,8
1836,Sainghin-en-Weppes,50.5625,2.9006,1
1837,Sigean,43.0281,2.9778,6
1838,Ensuès-la-Redonne,43.3558,5.2042,11
1839,Tournus,46.5617,4.9122,8
1840,Calonne-Ricouart,50.4869,2.4836,1
1841,Roquemaure,44.0517,4.7783,11
1842,Ternay,45.6022,4.8106,8
1843,Nueil-les-Aubiers,46.9372,-0.59,10
1844,Le Port-Marly,48.8792,2.1097,7
1845,Farébersviller,49.1147,6.8636,3
1846,Lardy,48.5222,2.2653,7
1847,Étoile-sur-Rhône,44.8369,4.8939,11
1848,Villabé,48.5883,2.4561,7
1849,Le Cendre,45.7225,3.1872,2
1850,Sausheim,47.7867,7.3731,3
1851,Saint-Martin-d’Uriage,45.1522,5.8392,8
1852,Oye-Plage,50.9778,2.0442,1
1853,Aubigny-sur-Nère,47.4886,2.4392,7
1854,Saint-Georges-d’Orques,43.6103,3.7806,11
1855,Heillecourt,48.6525,6.1942,3
1856,Saint-Memmie,48.9531,4.3831,1
1857,Grand-Champ,47.7586,-2.8444,5
1858,Fenain,50.3658,3.3006,1
1859,Saint-Pierre-lès-Nemours,48.2653,2.6797,7
1860,Audruicq,50.8792,2.0806,1
1861,La Roque-d’Anthéron,43.7147,5.3108,11
1862,Quincy-Voisins,48.8994,2.8736,7
1863,Jonquières,44.1153,4.8992,11
1864,Ille-sur-Têt,42.6706,2.6206,6
1865,Ventabren,43.5389,5.2931,11
1866,Aiffres,46.2864,-0.4172,10
1867,Clapiers,43.6575,3.8883,11
1868,Saint-Astier,45.1453,0.5281,9
1869,Nuits-Saint-Georges,47.1375,4.9503,8
1870,Sauvian,43.2919,3.2606,6
1871,Saint-Laurent-de-Mure,45.6856,5.0447,8
1872,Dives-sur-Mer,49.2856,-0.1011,4
1873,Gévezé,48.2194,-1.7894,5
1874,Coulogne,50.9242,1.885,1
1875,Reichshoffen,48.9344,7.6661,3
1876,Commercy,48.7642,5.5917,3
1877,Oberhausbergen,48.6067,7.6853,3
1878,Ploumagoar,48.5453,-3.1325,5
1879,Le Boulou,42.5239,2.83,6
1880,Saleilles,42.6542,2.9517,6
1881,La Roquette-sur-Siagne,43.58,6.9556,0
1882,Souppes-sur-Loing,48.1831,2.7353,7
1883,Wervicq-Sud,50.7722,3.0478,1
1884,Loison-sous-Lens,50.4383,2.8683,1
1885,Arradon,47.6256,-2.8233,5
1886,Kembs,47.6889,7.5036,3
1887,Eschau,48.4881,7.7158,3
1888,Ostricourt,50.4544,3.0308,1
1889,Plouhinec,47.6975,-3.2511,5
1890,Missillac,47.4822,-2.1589,5
1891,Chazelles-sur-Lyon,45.6386,4.3919,8
1892,Déchy,50.3525,3.1283,1
1893,Ondres,43.5608,-1.4494,9
1894,Châtillon-sur-Seine,47.8583,4.5742,8
1895,Decazeville,44.5592,2.2556,6
1896,Arnage,47.9261,0.1878,4
1897,Sillingy,45.9458,6.0353,8
1898,Scaër,48.0272,-3.7022,5
1899,Saint-Georges-de-Didonne,45.6053,-0.9986,10
1900,Bordères-sur-l’Échez,43.2592,0.0492,9
1901,Villennes-sur-Seine,48.9392,1.9978,7
1902,Marsannay-la-Côte,47.2706,4.9886,8
1903,Piolenc,44.1778,4.7614,11
1904,Garéoult,43.3283,6.0461,0
1905,Neuville-de-Poitou,46.685,0.245,10
1906,Montbonnot-Saint-Martin,45.2269,5.8025,8
1907,Viry,46.1175,6.0375,8
1908,Beaucouzé,47.4756,-0.6328,10
1909,Erquinghem-Lys,50.6756,2.8475,1
1910,Ferrière-la-Grande,50.255,3.9928,1
1911,L’Hôpital,49.1581,6.7322,3
1912,Montrond-les-Bains,45.6436,4.2306,8
1913,Sully-sur-Loire,47.765,2.3753,7
1914,La Ferrière,46.7136,-1.3144,10
1915,Fenouillet,43.6797,1.3939,6
1916,Genlis,47.2408,5.2231,8
1917,Longuyon,49.4469,5.6006,3
1918,Decize,46.8292,3.4614,2
1919,Valdoie,47.6672,6.8419,3
1920,Plessé,47.5417,-1.8869,5
1921,Mouy,49.3158,2.3194,7
1922,Gauchy,49.8253,3.2856,1
1923,Bléré,47.3253,0.9897,2
1924,Bédarrides,44.0406,4.8981,11
1925,Vergèze,43.7433,4.22,11
1926,Mulsanne,47.9117,0.2489,4
1927,Ligné,47.4117,-1.3772,10
1928,Mamers,48.3494,0.3694,4
1929,Faulquemont,49.0411,6.5992,3
1930,Rosheim,48.4967,7.4694,3
1931,Viarmes,49.1278,2.3703,7
1932,Saint-Privat-des-Vieux,44.1442,4.1292,11
1933,Valence,44.1103,0.8894,9
1934,Drusenheim,48.7619,7.9517,3
1935,Pont-Évêque,45.5303,4.9111,8
1936,Briare,47.6381,2.7392,7
1937,Guémené-Penfao,47.63,-1.8325,5
1938,Mouguerre,43.4683,-1.4161,9
1939,Vic-le-Comte,45.6431,3.2461,2
1940,Châteaulin,48.1967,-4.09,5
1941,Saint-Pourçain-sur-Sioule,46.3075,3.2894,2
1942,Villeneuve-sur-Yonne,48.0814,3.2967,7
1943,Pourrières,43.5039,5.7339,0
1944,Saint-Michel-Chef-Chef,47.1807,-2.1487,5
1945,Mazé,47.4564,-0.2731,10
1946,Parigné-l’Évêque,47.9364,0.3644,4
1947,La Grand-Croix,45.5031,4.5689,8
1948,Saint-Pierre-d’Irube,43.4764,-1.4589,9
1949,Pont-Sainte-Marie,48.3206,4.1014,7
1950,Montaigu,46.9728,-1.31,10
1951,Le Pellerin,47.1983,-1.7539,10
1952,Champniers,45.715,0.2056,9
1953,Cancale,48.6767,-1.8519,5
1954,Cuges-les-Pins,43.2764,5.7006,0
1955,Crégy-lès-Meaux,48.9786,2.8783,7
1956,Penmarch,47.8122,-4.3378,5
1957,Rocbaron,43.3042,6.0908,0
1958,Condat-sur-Vienne,45.7931,1.2317,2
1959,Rambervillers,48.3458,6.6347,3
1960,Le Rove,43.3692,5.2503,11
1961,Saint-Chéron,48.5536,2.1247,7
1962,Bauvin,50.5142,2.8981,1
1963,Servian,43.4272,3.2992,6
1964,Peyrolles-en-Provence,43.6456,5.585,11
1965,Mériel,49.0792,2.205,7
1966,Grand-Fort-Philippe,50.9978,2.1092,1
1967,Château-Arnoux-Saint-Auban,44.0933,6.0083,0
1968,Grans,43.6086,5.0631,11
1969,Charbonnières-les-Bains,45.7806,4.7464,8
1970,Bessan,43.3614,3.4242,11
1971,Saint-Étienne-au-Mont,50.6817,1.6258,1
1972,Mourmelon-le-Grand,49.1408,4.3644,1
1973,Luynes,47.3847,0.5544,10
1974,Querqueville,49.6633,-1.6953,4
1975,La Souterraine,46.2381,1.4856,2
1976,Saint-Gilles,48.1536,-1.8261,5
1977,Cucq,50.4869,1.6244,1
1978,Villers-le-Lac,47.0608,6.6703,3
1979,Locmaria-Plouzané,48.3747,-4.6436,5
1980,Plouigneau,48.5675,-3.7014,5
1981,Brébières,50.3369,3.0228,1
1982,Lacanau,44.9792,-1.0794,9
1983,Saint-Germain-du-Puy,47.0992,2.4811,2
1984,Mirecourt,48.2986,6.1303,3
1985,La Garnache,46.8906,-1.8311,10
1986,Sainte-Marie-aux-Mines,48.2467,7.1839,3
1987,Lambres-lès-Douai,50.3531,3.0678,1
1988,Pacy-sur-Eure,49.0158,1.3819,7
1989,Laillé,47.9778,-1.7183,5
1990,Forcalquier,43.9592,5.7797,0
1991,Villefranche-sur-Mer,43.7042,7.3117,0
1992,Marquise,50.8147,1.7033,1
1993,Trilport,48.9572,2.9492,7
1994,Salbris,47.4253,2.0519,2
1995,Tourves,43.4081,5.9239,0
1996,Florensac,43.3828,3.465,11
1997,Gruissan,43.1069,3.0883,6
1998,Muzillac,47.5531,-2.4817,5
1999,Saint-Genis-les-Ollières,45.7572,4.7264,8
2000,Villette-d’Anthon,45.7953,5.1158,8
2001,Seichamps,48.7158,6.2661,3
2002,La Balme-de-Sillingy,45.9611,6.0419,8
2003,Coublevie,45.3556,5.6167,8
2004,Bitche,49.0517,7.4253,3
2005,Champagne-sur-Oise,49.1358,2.2356,7
2006,Cazouls-lès-Béziers,43.3922,3.1014,6
2007,La Grand-Combe,44.2111,4.0294,11
2008,Pulnoy,48.7011,6.2583,3
2009,Le Bourget-du-Lac,45.6483,5.8597,8
2010,Moulins-lès-Metz,49.1064,6.1089,3
2011,Beaucourt,47.4861,6.9253,3
2012,Saint-Mars-du-Désert,47.3664,-1.4058,10
2013,Séméac,43.2281,0.1067,9
2014,Conches-en-Ouche,48.9606,0.9425,4
2015,Montbard,47.6231,4.3369,8
2016,Vernaison,45.6478,4.8114,8
2017,Yffiniac,48.485,-2.6775,5
2018,Laventie,50.6275,2.7711,1
2019,Douvres-la-Délivrande,49.2933,-0.3794,4
2020,Orgères,47.9989,-1.6683,5
2021,Witry-lès-Reims,49.2931,4.1208,1
2022,Baume-les-Dames,47.3522,6.36,3
2023,Blendecques,50.7169,2.2764,1
2024,Le Lion-d’Angers,47.6278,-0.7131,10
2025,Sommières,43.7844,4.09,11
2026,Pollestres,42.6378,2.8669,6
2027,Saint-Sever,43.7567,-0.5742,9
2028,Villerest,45.9933,4.0367,8
2029,Montchanin,46.7481,4.4689,8
2030,Villars-les-Dombes,46.0025,5.0297,8
2031,Tourrette-Levens,43.7867,7.2758,0
2032,Schweighouse-sur-Moder,48.8192,7.7281,3
2033,Gambsheim,48.6922,7.8833,3
2034,Fleury-sur-Orne,49.1461,-0.3764,4
2035,Beaurepaire,45.3383,5.0544,8
2036,Giberville,49.1817,-0.2822,4
2037,Vittel,48.2017,5.9494,3
2038,Garons,43.7683,4.4283,11
2039,Bonneval,48.1814,1.3881,7
2040,Habsheim,47.7294,7.4189,3
2041,Mouilleron-le-Captif,46.7172,-1.4556,10
2042,Château-Renault,47.5914,0.9094,4
2043,Cléon,49.315,1.0356,4
2044,Saint-Pol-sur-Ternoise,50.3792,2.3347,1
2045,Villenoy,48.9411,2.8614,7
2046,Aubevoye,49.1739,1.3344,7
2047,Ludon-Médoc,44.9822,-0.6039,9
2048,La Mézière,48.2183,-1.7556,5
2049,La Mure,44.9031,5.7875,8
2050,Desvres,50.6678,1.8344,1
2051,Vaux-sur-Seine,49.0078,1.9631,7
2052,Amplepuis,45.9725,4.3303,8
2053,Idron,43.2889,-0.3117,9
2054,Mormant,48.6069,2.89,7
2055,Reyrieux,45.9344,4.8233,8
2056,La Voulte-sur-Rhône,44.7994,4.7792,11
2057,Saint-Nom-la-Bretêche,48.8597,2.0211,7
2058,Pauillac,45.2,-0.7486,9
2059,Cysoing,50.5683,3.215,1
2060,Saint-Xandre,46.2047,-1.1025,10
2061,Beauvoisin,43.7183,4.3236,11
2062,Le Quesnoy,50.2489,3.6375,1
2063,La Ferté-Gaucher,48.7825,3.3053,7
2064,Argenton-sur-Creuse,46.5889,1.5192,2
2065,Saint-James,48.5228,-1.3247,4
2066,Le Trait,49.4881,0.8053,4
2067,Bornel,49.1983,2.2092,7
2068,Caumont-sur-Durance,43.8947,4.9464,11
2069,Lacroix-Saint-Ouen,49.3561,2.7869,7
2070,Verneuil-sur-Vienne,45.8489,1.1267,2
2071,Petite Forêt,50.3711,3.4744,1
2072,Châtillon-sur-Chalaronne,46.1197,4.9569,8
2073,Rousset,43.4822,5.6222,0
2074,Cluny,46.4344,4.6592,8
2075,Barberaz,45.5633,5.9447,8
2076,Le Versoud,45.2158,5.8622,8
2077,Saint-Vit,47.1814,5.8108,8
2078,Pompey,48.7681,6.1275,3
2079,Bretignolles-sur-Mer,46.6278,-1.855,10
2080,Coubron,48.9153,2.5775,7
2081,Valleiry,46.1081,5.9681,8
2082,Vic-en-Bigorre,43.3856,0.0531,9
2083,Marcheprime,44.6922,-0.855,9
2084,Saint-Jean-d’Ardières,46.1258,4.7381,8
2085,Soufflenheim,48.8297,7.9631,3
2086,Neuville-aux-Bois,48.07,2.0539,7
2087,Saint-Saturnin-lès-Avignon,43.9567,4.9303,11
2088,Graveson,43.8511,4.7733,11
2089,Saint-Marcellin-en-Forez,45.4972,4.1672,8
2090,Sangatte,50.9467,1.7567,1
2091,Mondonville,43.6711,1.2875,6
2092,Cazères,43.2064,1.0858,6
2093,Bar-sur-Aube,48.2331,4.7064,3
2094,Limas,45.9756,4.7056,8
2095,Cessy,46.3192,6.07,8
2096,Saint-Sylvain-d’Anjou,47.5197,-0.4717,10
2097,Paron,48.1894,3.2639,7
2098,Saverdun,43.2344,1.5744,6
2099,Marolles-en-Brie,48.7325,2.5508,7
2100,Fagnières,48.9636,4.3183,1
2101,Saint-Mathieu,43.7697,3.8686,11
2102,Haillicourt,50.4761,2.5847,1
2103,Le Coudray-Montceaux,48.5658,2.4861,7
2104,Saint-Paul-en-Jarez,45.4831,4.5744,8
2105,Blaye,45.1278,-0.6622,9
2106,Tresses,44.8486,-0.4639,9
2107,La Côte-Saint-André,45.3936,5.2606,8
2108,Bourbon-Lancy,46.6194,3.7733,2
2109,Bousbecque,50.7708,3.0786,1
2110,Morez,46.5219,6.0222,8
2111,La Charité,47.1769,3.0189,2
2112,Bégard,48.6281,-3.3008,5
2113,Mandeure,47.4511,6.8056,3
2114,Nans-les-Pins,43.3706,5.7822,0
2115,Mignaloux-Beauvoir,46.5433,0.4161,10
2116,Fumel,44.4986,0.9672,9
2117,Bazas,44.4319,-0.2117,9
2118,Sainte-Marie-la-Mer,42.7272,3.0169,6
2119,Herrlisheim,48.7303,7.9075,3
2120,Le Fenouiller,46.7194,-1.9006,10
2121,Montigny-en-Ostervent,50.3667,3.1869,1
2122,Castelnau-de-Médoc,45.0269,-0.7992,9
2123,Baisieux,50.6153,3.2408,1
2124,Verdun-sur-Garonne,43.8531,1.2358,6
2125,Phalempin,50.5169,3.0164,1
2126,Chavanoz,45.7772,5.1717,8
2127,Dagneux,45.8517,5.0681,8
2128,L’Horme,45.4864,4.5447,8
2129,Saint-Pantaléon-de-Larche,45.1411,1.4464,2
2130,Saint-Lyphard,47.3978,-2.3078,5
2131,Mundolsheim,48.6436,7.7142,3
2132,Heyrieux,45.6292,5.0633,8
2133,Auneau,48.4619,1.7731,7
2134,Saint-Laurent-Médoc,45.1503,-0.8219,9
2135,Mandres-les-Roses,48.7022,2.5444,7
2136,Créon,44.7744,-0.3481,9
2137,Cerizay,46.8214,-0.6647,10
2138,Dieulouard,48.8397,6.0697,3
2139,Sézanne,48.7189,3.7228,7
2140,Billom,45.7228,3.3386,2
2141,Gorges,47.1017,-1.3039,10
2142,Banyuls-sur-Mer,42.4822,3.1275,6
2143,Vermelles,50.4883,2.7458,1
2144,Sequedin,50.6264,2.985,1
2145,La Chapelle-des-Fougeretz,48.1772,-1.7328,5
2146,Sainte-Eulalie,44.9089,-0.4719,9
2147,Guise,49.9003,3.6275,1
2148,Phalsbourg,48.7678,7.2583,3
2149,Hallennes-lès-Haubourdin,50.6133,2.9594,1
2150,Levens,43.8608,7.2244,0
2151,Saint-Nicolas,50.3028,2.7772,1
2152,Le Tréport,50.0606,1.3711,7
2153,Ars-sur-Moselle,49.0781,6.0742,3
2154,Laigneville,49.2961,2.4456,7
2155,Ollainville,48.5897,2.2192,7
2156,Neufchâtel-en-Bray,49.7339,1.4406,7
2157,Écommoy,47.8283,0.2731,4
2158,Rognes,43.6644,5.3472,11
2159,Sainte-Soulle,46.1861,-1.0119,10
2160,Auchy-les-Mines,50.5125,2.7839,1
2161,Bonnières-sur-Seine,49.0353,1.5797,7
2162,Charmes,48.3717,6.2925,3
2163,La Frette-sur-Seine,48.9742,2.1783,7
2164,Ribeauvillé,48.1953,7.3183,3
2165,Mésanger,47.4331,-1.2314,10
2166,Veneux-les-Sablons,48.3778,2.7928,7
2167,Billy-Berclau,50.5189,2.8675,1
2168,Saint-Leu-d’Esserent,49.2172,2.4219,7
2169,Guesnain,50.3525,3.1447,1
2170,Bouloc,43.7803,1.405,6
2171,Lamotte-Beuvron,47.6022,2.0247,7
2172,Chasseneuil-du-Poitou,46.6511,0.3722,10
2173,Lorette,45.5119,4.5811,8
2174,Beynost,45.8403,5.0014,8
2175,Lisle-sur-Tarn,43.8536,1.8111,6
2176,Bavilliers,47.6194,6.8306,3
2177,Ingersheim,48.0947,7.3064,3
2178,Barbezieux-Saint-Hilaire,45.4728,-0.1556,9
2179,Verneuil-en-Halatte,49.2764,2.5222,7
2180,Vitry-en-Artois,50.3258,2.9831,1
2181,La Haie-Fouassière,47.1556,-1.3992,10
2182,Hagetmau,43.6553,-0.5936,9
2183,Marvejols,44.5533,3.29,11
2184,Langeais,47.3256,0.4061,10
2185,Die,44.7536,5.3703,11
2186,Bièvres,48.7556,2.215,7
2187,Villefranche-de-Lauragais,43.3997,1.7181,6
2188,Monville,49.5464,1.0756,4
2189,Drap,43.755,7.3214,0
2190,Ceyreste,43.2136,5.6297,0
2191,Roques,43.5106,1.3764,6
2192,Munster,48.0414,7.1342,3
2193,Nivillac,47.5339,-2.2825,5
2194,Saint-Sulpice,44.91,-0.3906,9
2195,Quiberon,47.4833,-3.1206,5
2196,Luzarches,49.1131,2.4222,7
2197,Venansault,46.6861,-1.5125,10
2198,Pont-l’Évêque,49.2856,0.1839,4
2199,Saint-Martin-des-Champs,48.5761,-3.8436,5
2200,Bassens,45.5811,5.9408,8
2201,Noiseau,48.7769,2.5472,7
2202,Saint-Méen-le-Grand,48.1892,-2.1908,5
2203,Beuzeville,49.3447,0.3425,4
2204,Trouville-sur-Mer,49.3675,0.0817,4
2205,Noirmoutier-en-l’Île,47.0014,-2.2433,5
2206,Angres,50.4092,2.7586,1
2207,Blénod-lès-Pont-à-Mousson,48.8833,6.0472,3
2208,Samer,50.6397,1.7453,1
2209,Rilhac-Rancon,45.8969,1.3186,2
2210,Lestrem,50.6222,2.685,1
2211,Jargeau,47.8647,2.125,7
2212,Milly-la-Forêt,48.4042,2.4669,7
2213,Nilvange,49.3422,6.05,3
2214,Ham,49.7464,3.0728,1
2215,Blotzheim,47.6017,7.4953,3
2216,Villiers-sur-Orge,48.6578,2.3028,7
2217,Bizanos,43.2875,-0.3514,9
2218,Salies-de-Béarn,43.4708,-0.9264,9
2219,Évin-Malmaison,50.4383,3.0333,1
2220,Robion,43.845,5.1128,11
2221,Marchiennes-Ville,50.4081,3.2822,1
2222,Teyran,43.6842,3.9281,11
2223,Selles-sur-Cher,47.2756,1.5547,2
2224,La Turballe,47.3456,-2.5067,5
2225,Saint-Jean-de-Bournay,45.5022,5.1378,8
2226,Nozay,48.6603,2.2428,7
2227,Saint-Hilaire-de-Loulay,47.0031,-1.3308,10
2228,Sanilhac,45.1217,0.7139,9
2229,Ballainvilliers,48.6753,2.2964,7
2230,Lescure-d’Albigeois,43.9533,2.1703,6
2231,Grésy-sur-Aix,45.7231,5.9339,8
2232,Saint-Père-en-Retz,47.2056,-2.041,5
2233,Château-du-Loir,47.6933,0.4181,4
2234,Espalion,44.5225,2.7631,6
2235,Soucieu-en-Jarrest,45.6778,4.7039,8
2236,Volvic,45.8703,3.0369,2
2237,Grimaud,43.2733,6.5217,0
2238,Charly,45.6489,4.7947,8
2239,Condé-sur-Noireau,48.8508,-0.55,4
2240,Véretz,47.3597,0.8056,10
2241,Saint-Pierre-de-Chandieu,45.6464,5.0147,8
2242,Le Thillay,49.0047,2.4708,7
2243,L’Hermitage,48.1258,-1.8158,5
2244,Auberchicourt,50.3328,3.2322,1
2245,Camaret-sur-Aigues,44.1633,4.8739,11
2246,Casteljaloux,44.3144,0.0881,9
2247,Thourotte,49.4786,2.8836,1
2248,La Chaussée-Saint-Victor,47.6139,1.3653,7
2249,Legé,46.8856,-1.5989,10
2250,Cap-d’Ail,43.7211,7.4056,0
2251,Buzançais,46.89,1.4225,2
2252,Iffendic,48.1303,-2.0336,5
2253,La Fouillouse,45.5039,4.3136,8
2254,Plouha,48.6756,-2.9294,5
2255,Leucate,42.9094,3.0289,6
2256,Sarralbe,48.9961,7.0278,3
2257,Saint-Laurent-du-Pont,45.3875,5.7347,8
2258,Crespin,50.42,3.6614,1
2259,Maraussan,43.3667,3.1578,6
2260,Bray-Dunes,51.0711,2.5275,1
2261,Royat,45.765,3.05,2
2262,Craon,47.8481,-0.9497,10
2263,Surzur,47.5783,-2.6297,5
2264,Friville-Escarbotin,50.0906,1.5497,1
2265,Cruseilles,46.0342,6.1075,8
2266,Allinges,46.335,6.4633,8
2267,Plobsheim,48.4697,7.7258,3
2268,Plourin-lès-Morlaix,48.535,-3.7897,5
2269,Marans,46.3083,-0.9928,10
2270,La Bouëxière,48.1839,-1.4381,4
2271,Salaise-sur-Sanne,45.3444,4.8192,8
2272,Villers-Bretonneux,49.8669,2.52,1
2273,Tonnerre,47.8553,3.9733,7
2274,La Suze-sur-Sarthe,47.8897,0.0253,4
2275,Monnaie,47.5006,0.7853,4
2276,Morestel,45.6778,5.47,8
2277,Saint-Martin-de-Valgalgues,44.1631,4.0822,11
2278,Saint-Léonard-de-Noblat,45.8375,1.4906,2
2279,Eyragues,43.8411,4.8411,11
2280,Capdenac-Gare,44.5717,2.0808,6
2281,L’Étang-la-Ville,48.8689,2.0711,7
2282,Villemoustaussou,43.2522,2.3647,6
2283,Argentré-du-Plessis,48.0572,-1.1539,4
2284,Saint-Marcel,49.0961,1.4456,7
2285,Cabannes,43.8606,4.9511,11
2286,Hœrdt,48.6964,7.7839,3
2287,Brou-sur-Chantereine,48.8825,2.6294,7
2288,Hergnies,50.4744,3.5219,1
2289,Locminé,47.8867,-2.8358,5
2290,Pont-Péan,48.0128,-1.7047,5
2291,Désertines,46.3544,2.6192,2
2292,Pineuilh,44.8311,0.2275,9
2293,Clohars-Carnoët,47.7958,-3.5858,5
2294,Le Ban-Saint-Martin,49.1219,6.1506,3
2295,Pechbonnieu,43.7039,1.4667,6
2296,Montbazon,47.2872,0.7136,10
2297,Monein,43.3203,-0.5794,9
2298,Viuz-en-Sallaz,46.1475,6.4103,8
2299,Ornans,47.1053,6.1431,3
2300,Camon,49.8869,2.3458,1
2301,Jouques,43.6369,5.6367,0
2302,Ornex,46.2761,6.0933,8
2303,Rouffach,47.9578,7.2978,3
2304,Aiguillon,44.3006,0.3375,9
2305,Morcenx,44.0331,-0.9147,9
2306,Rosières-près-Troyes,48.2603,4.0717,7
2307,Pringy,45.9467,6.1219,8
2308,Jarnac,45.6814,-0.1758,9
2309,Saint-Hilaire-de-Brethmas,44.0808,4.1253,11
2310,Tiercé,47.615,-0.4675,10
2311,Reichstett,48.6458,7.7522,3
2312,Is-sur-Tille,47.5208,5.1156,8
2313,Leuville-sur-Orge,48.6169,2.2644,7
2314,Ardres,50.8547,1.9775,1
2315,Écrouves,48.68,5.8406,3
2316,Retiers,47.9133,-1.3819,10
2317,Le Châtelet-en-Brie,48.5031,2.7894,7
2318,Pignans,43.3006,6.2267,0
2319,Herserange,49.5183,5.7842,3
2320,Plaintel,48.4081,-2.8183,5
2321,Saint-Georges-de-Reneins,46.0619,4.7217,8
2322,Niederbronn-les-Bains,48.95,7.6439,3
2323,Steenvoorde,50.8094,2.5828,1
2324,Louverné,48.1228,-0.7181,4
2325,Haisnes,50.5081,2.8017,1
2326,Annay,50.4636,2.8822,1
2327,Vivonne,46.4303,0.265,10
2328,Abscon,50.3342,3.3022,1
2329,Saint-Florentin,48.0019,3.725,7
2330,Maintenon,48.5865,1.5771,7
2331,Sadirac,44.7814,-0.41,9
2332,La Plaine-sur-Mer,47.1375,-2.1897,5
2333,Bas-en-Basset,45.3061,4.1092,11
2334,La Brède,44.6814,-0.5286,9
2335,Pins-Justaret,43.4797,1.3833,6
2336,Bédée,48.1794,-1.9442,5
2337,Baden,47.6186,-2.9203,5
2338,Village-Neuf,47.6067,7.5694,3
2339,La Réole,44.5811,-0.0412,9
2340,Breteuil-sur-Iton,48.8361,0.9139,4
2341,Jouarre,48.9269,3.13,7
2342,Mimet,43.4136,5.5056,11
2343,Avesnes-sur-Helpe,50.1236,3.9256,1
2344,Uchaud,43.7569,4.2694,11
2345,Sanguinet,44.4844,-1.0742,9
2346,Morigny-Champigny,48.4464,2.1833,7
2347,La Tremblade,45.7694,-1.1417,10
2348,Freneuse,49.0472,1.6008,7
2349,Vouziers,49.3981,4.7011,1
2350,Chaponnay,45.6275,4.9361,8
2351,Coignières,48.7472,1.9203,7
2352,La Tour-d’Aigues,43.7253,5.5478,11
2353,Puget-Ville,43.2894,6.1361,0
2354,Montagnac,43.4808,3.4831,11
2355,Pontorson,48.5533,-1.5072,4
2356,Bagneux,47.2456,-0.0894,10
2357,Maurecourt,48.9972,2.0619,7
2358,Bruyères-sur-Oise,49.1572,2.3275,7
2359,Millery,45.6322,4.7819,8
2360,Goven,48.0061,-1.8475,5
2361,Gonfaron,43.3206,6.2892,0
2362,Castelmaurou,43.6767,1.5314,6
2363,Provin,50.5147,2.9128,1
2364,Macau,45.0083,-0.6139,9
2365,Égletons,45.4064,2.0453,2
2366,Ytrac,44.9119,2.3625,2
2367,La Norville,48.5853,2.2597,7
2368,Sanvignes-les-Mines,46.6653,4.2936,8
2369,Angerville,48.3103,1.9983,7
2370,Saint-Georges-de-Montaigu,46.9469,-1.2947,10
2371,Serres-Castet,43.3864,-0.3547,9
2372,Vinay,45.21,5.4036,8
2373,Cheval-Blanc,43.8008,5.0631,11
2374,Morlaàs,43.3444,-0.2625,9
2375,Dompierre-sur-Yon,46.7375,-1.3853,10
2376,Le Val,43.4394,6.0731,0
2377,Solesmes,50.1856,3.4983,1
2378,Sainte-Marie-aux-Chênes,49.1917,6.0022,3
2379,Flayosc,43.5342,6.3969,0
2380,Le Cannet-des-Maures,43.3917,6.3408,0
2381,Bourgbarré,47.9944,-1.6147,5
2382,Maîche,47.2511,6.8036,3
2383,L’Huisserie,48.0239,-0.7689,4
2384,Gratentour,43.7211,1.4314,6
2385,Marlenheim,48.6228,7.4931,3
2386,Millas,42.6917,2.6956,6
2387,La Chapelle-des-Marais,47.4472,-2.2417,5
2388,Villeneuve,43.8942,5.8631,0
2389,Chancelade,45.2056,0.6656,9
2390,Leffrinckoucke,51.0536,2.4386,1
2391,Rians,43.6069,5.7572,0
2392,Guignes-Rabutin,48.6358,2.7986,7
2393,Gréasque,43.4306,5.5392,11
2394,Vimy,50.3725,2.8106,1
2395,Claira,42.7603,2.9556,6
2396,Carnac,47.5847,-3.0778,5
2397,Écouflant,47.5294,-0.5311,10
2398,Nanteuil-le-Haudouin,49.1417,2.8106,7
2399,Caveirac,43.825,4.2622,11
2400,Breteuil,49.6325,2.2933,7
2401,Montbeton,44.0114,1.285,6
2402,Courseulles-sur-Mer,49.3328,-0.4578,4
2403,Vinon-sur-Verdon,43.7247,5.8119,0
2404,Villard-de-Lans,45.07,5.5506,8
2405,Brionne,49.1947,0.7203,4
2406,Clarensac,43.8269,4.2181,11
2407,La Guerche-de-Bretagne,47.9414,-1.2297,10
2408,Le Touquet-Paris-Plage,50.5233,1.5853,1
2409,Le Château-d’Oléron,45.8858,-1.1947,10
2410,Brie,45.7378,0.2408,9
2411,Baccarat,48.4486,6.7381,3
2412,Soullans,46.7958,-1.9,10
2413,Rang-du-Fliers,50.4175,1.6397,1
2414,Aramon,43.8911,4.6808,11
2415,Valras-Plage,43.2469,3.2908,6
2416,Ghisonaccia,42.0164,9.405,0
2417,Bages,42.6058,2.8969,6
2418,Communay,45.6044,4.835,8
2419,Serémange-Erzange,49.3208,6.0906,3
2420,Arthon-en-Retz,47.1164,-1.9386,10
2421,Saint-Donat-sur-l’Herbasse,45.1231,4.9828,8
2422,Saint-Méloir-des-Ondes,48.6375,-1.9031,5
2423,Tigery,48.6403,2.5086,7
2424,Ascain,43.3452,-1.6207,9
2425,Saint-Just-Malmont,45.3394,4.3128,8
2426,Montélier,44.9375,5.0311,11
2427,Ecquevilly,48.95,1.9214,7
2428,Le Neubourg,49.1483,0.9028,4
2429,Pons,45.5803,-0.5481,9
2430,Saint-Georges-lès-Baillargeaux,46.6708,0.4,10
2431,Survilliers,49.0978,2.545,7
2432,Biache-Saint-Vaast,50.3117,2.9442,1
2433,Yvré-l’Évêque,48.0144,0.2664,4
2434,Bouxières-aux-Dames,48.7519,6.1631,3
2435,Sées,48.6047,0.1714,4
2436,Cadenet,43.735,5.3733,11
2437,Châtenois,48.2719,7.4008,3
2438,Lanvallay,48.4553,-2.0283,5
2439,Moret-sur-Loing,48.3744,2.815,7
2440,Chavagne,48.0542,-1.7844,5
2441,Plomelin,47.9356,-4.1531,5
2442,Ussac,45.1925,1.5092,2
2443,Lunel-Viel,43.6778,4.0917,11
2444,Saint-Chély-d’Apcher,44.8031,3.2758,11
2445,Fourchambault,47.0186,3.0847,2
2446,Collonges-au-Mont-d’Or,45.8239,4.8403,8
2447,Offemont,47.6633,6.8775,3
2448,Plougonvelin,48.3428,-4.7114,5
2449,Rousson,44.1786,4.15,11
2450,Pont-du-Casse,44.2314,0.6811,9
2451,Wolfisheim,48.5867,7.6664,3
2452,Escautpont,50.4244,3.5586,1
2453,La Séguinière,47.0631,-0.9397,10
2454,Nozay,47.5644,-1.6253,10
2455,Saint-Romain-de-Colbosc,49.5314,0.3569,4
2456,Riec-sur-Bélon,47.8439,-3.6944,5
2457,Saulxures-lès-Nancy,48.6889,6.2469,3
2458,Le Lude,47.645,0.1531,4
2459,Notre-Dame-d’Oé,47.4578,0.7081,4
2460,Ghyvelde,51.0517,2.5272,1
2461,Marckolsheim,48.1639,7.5439,3
2462,Hillion,48.5136,-2.6689,5
2463,Prigonrieux,44.8542,0.4036,9
2464,La Chapelle-de-Guinchay,46.2106,4.7547,8
2465,Saint-Jeannet,43.7464,7.1433,0
2466,Pluguffan,47.9808,-4.1789,5
2467,Pont-de-Roide,47.3847,6.77,3
2468,Barbentane,43.8994,4.7478,11
2469,Villeneuve-lès-Béziers,43.3147,3.2803,6
2470,Grisolles,43.8281,1.2958,6
2471,Pont-de-l’Arche,49.3028,1.1539,7
2472,Sevrier,45.8644,6.1397,8
2473,Ormes,47.9411,1.8206,7
2474,Sainte-Menehould,49.09,4.8972,3
2475,Truchtersheim,48.6628,7.6069,3
2476,La Bresse,48.0058,6.8758,3
2477,Le Pouliguen,47.2769,-2.4303,5
2478,Plumergat,47.7419,-2.9172,5
2479,Sainte-Maure-de-Touraine,47.1122,0.6211,10
2480,Combrit,47.8869,-4.16,5
2481,Duclair,49.4847,0.8753,4
2482,Gattières,43.7594,7.1758,0
2483,Roquettes,43.4989,1.3667,6
2484,Brives-Charensac,45.0467,3.9267,11
2485,Le Coudray,48.4303,1.4908,7
2486,Chazay-d’Azergues,45.8758,4.7131,8
2487,Semur-en-Auxios,47.4908,4.3328,8
2488,Hérin,50.3544,3.4525,1
2489,Monéteau,47.85,3.5783,7
2490,Pagny-sur-Moselle,48.9833,6.0214,3
2491,Masny,50.3486,3.2017,1
2492,Le Plessis-Pâté,48.6139,2.3292,7
2493,Le Croisic,47.2931,-2.5106,5
2494,Épagny,45.9375,6.0908,8
2495,Aigrefeuille-d’Aunis,46.1158,-0.9336,10
2496,Pusignan,45.7556,5.0672,8
2497,Pomponne,48.8819,2.6908,7
2498,Saint-Tropez,43.2697,6.6386,0
2499,Montmélian,45.5028,6.0536,8
2500,Bessières,43.8006,1.6058,6
2501,Saclay,48.7308,2.1733,7
2502,Générac,43.7283,4.3486,11
2503,Saint-Savin,45.6286,5.3061,8
2504,Auzeville-Tolosane,43.5272,1.4817,6
2505,Montrabé,43.6425,1.525,6
2506,Caissargues,43.7958,4.3789,11
2507,Redessan,43.8319,4.4969,11
2508,Saint-Joachim,47.3822,-2.2008,5
2509,Pléneuf-Val-André,48.5908,-2.5481,5
2510,Saint-Martin-au-Laërt,50.7553,2.2358,1
2511,Juillan,43.2014,0.0233,9
2512,Bollwiller,47.8572,7.2619,3
2513,Saint-Mihiel,48.8894,5.54,3
2514,Aulnat,45.7992,3.1675,2
2515,Port-Vendres,42.5181,3.105,6
2516,Hondschoote,50.9794,2.5853,1
2517,Jacob-Bellecombette,45.5556,5.9136,8
2518,Rognonas,43.9008,4.8047,11
2519,Allevard,45.3936,6.0742,8
2520,Agneaux,49.1167,-1.1111,4
2521,Maing,50.3089,3.4858,1
2522,Ingwiller,48.8731,7.4769,3
2523,Rousies,50.2717,4.0058,1
2524,Corenc,45.2114,5.7506,8
2525,Saint-Pair-sur-Mer,48.815,-1.5686,4
2526,Vayres,44.8972,-0.3144,9
2527,Saint-Romain-le-Puy,45.5556,4.1231,8
2528,Bresles,49.4103,2.2508,7
2529,Loctudy,47.8336,-4.1692,5
2530,Anneyron,45.2711,4.8878,8
2531,Gondecourt,50.5444,2.9842,1
2532,Santeny,48.7258,2.5722,7
2533,Ligny-en-Barrois,48.6886,5.3239,3
2534,Sandillon,47.8453,2.0325,7
2535,La Châtre,46.5822,1.9872,2
2536,La Tour-de-Salvagny,45.8136,4.7167,8
2537,Miniac-Morvan,48.5147,-1.9,5
2538,Basse Indre,47.1986,-1.6711,10
2539,Courpière,45.755,3.5381,2
2540,Le Houlme,49.5081,1.0361,4
2541,Condé-sur-Vire,49.0522,-1.0372,4
2542,Poulx,43.9108,4.4236,11
2543,Nogent-le-Roi,48.6486,1.5286,7
2544,Saint-Rémy-sur-Avre,48.7614,1.2422,7
2545,Wimille,50.7631,1.6325,1
2546,Savigné-l’Évêque,48.0764,0.2969,4
2547,Pujaut,44.0047,4.7747,11
2548,Ganges,43.9342,3.7083,11
2549,Saint-Pierre-d’Albigny,45.5697,6.1553,8
2550,Cuxac-d’Aude,43.2458,2.9992,6
2551,Poligny,46.8361,5.7078,8
2552,Saint-Nabord,48.0494,6.5797,3
2553,Locmiquélic,47.7253,-3.3408,5
2554,Tourrettes-sur-Loup,43.7161,7.06,0
2555,Saint-Hilaire-Saint-Florent,47.2653,-0.1012,10
2556,Bricquebec,49.47,-1.6292,4
2557,Hochfelden,48.7594,7.57,3
2558,Nissan-lez-Enserune,43.2883,3.1286,6
2559,Blainville-sur-l’Eau,48.5558,6.4069,3
2560,Raimbeaucourt,50.4397,3.1025,1
2561,La Pommeraye,47.3553,-0.8603,10
2562,Issou,48.9892,1.7925,7
2563,Saint-André-de-l’Eure,48.9067,1.2764,7
2564,Saint-Lubin-des-Joncherets,48.7667,1.1931,7
2565,Angoulins,46.1042,-1.11,10
2566,Belleville-sur-Vie,46.7833,-1.4311,10
2567,Longeville-lès-Metz,49.1144,6.1353,3
2568,Benet,46.3675,-0.5972,10
2569,Cires-lès-Mello,49.2731,2.3567,7
2570,Plélan-le-Grand,48.0017,-2.0992,5
2571,Les Martres-de-Veyre,45.6842,3.19,2
2572,Gourdon,44.7372,1.3828,6
2573,La Gacilly,47.765,-2.1319,5
2574,Campbon,47.4119,-1.9686,5
2575,Saint-Maurice-de-Beynost,45.8303,4.9753,8
2576,Paulhan,43.5408,3.4589,11
2577,Labège,43.5292,1.53,6
2578,La Bruffière,47.0131,-1.1978,10
2579,Carignan-de-Bordeaux,44.815,-0.4747,9
2580,Aigrefeuille-sur-Maine,47.0767,-1.4006,10
2581,Fouras,45.9878,-1.0931,10
2582,Moreuil,49.7744,2.4831,1
2583,Gravigny,49.0478,1.1636,7
2584,Chanteloup,48.855,2.7392,7
2585,Courtenay,48.0392,3.0553,7
2586,Le Bosquet,43.6744,7.0056,0
2587,Bonson,45.5233,4.2158,8
2588,Avermes,46.5878,3.3072,2
2589,Saint-Aignan-Grandlieu,47.1239,-1.6306,10
2590,Plouhinec,48.015,-4.4861,5
2591,Lourches,50.3147,3.3553,1
2592,Vieillevigne,46.9711,-1.4333,10
2593,Coye-la-Forêt,49.1422,2.4731,7
2594,Trouy,47.0103,2.3578,2
2595,Collonges-sous-Salève,46.1411,6.145,8
2596,Saffré,47.5017,-1.5786,10
2597,Sailly-sur-la-Lys,50.6578,2.7703,1
2598,Staffelfelden,47.8267,7.2531,3
2599,Folschviller,49.0694,6.685,3
2600,Bourg-Achard,49.3553,0.8175,4
2601,Fourqueux,48.8869,2.0653,7
2602,Guignen,47.9206,-1.8617,5
2603,Romillé,48.2158,-1.8919,5
2604,Eauze,43.8614,0.1014,9
2605,Allassac,45.2583,1.4756,2
2606,Bouchain,50.2842,3.3169,1
2607,Montady,43.3306,3.1208,6
2608,Chevry-Cossigny,48.7253,2.6625,7
2609,Tavaux,47.0436,5.4119,8
2610,Saint-Vallier,45.1786,4.8153,8
2611,Condrieu,45.4631,4.7678,8
2612,Bouzonville,49.2919,6.5344,3
2613,La Verrie,46.9611,-0.995,10
2614,Salouël,49.87,2.2422,1
2615,Presles,49.1153,2.2822,7
2616,Bretteville-sur-Odon,49.17,-0.4139,4
2617,Vagney,48.0083,6.7164,3
2618,Erquy,48.6317,-2.4642,5
2619,Aix-Noulette,50.4258,2.7097,1
2620,Villeneuve-de-la-Raho,42.6367,2.9172,6
2621,Le Revest-les-Eaux,43.1764,5.9264,0
2622,Bartenheim,47.6347,7.4758,3
2623,Toufflers,50.6608,3.2297,1
2624,Châteauneuf-sur-Isère,45.0139,4.9347,8
2625,Landévant,47.7647,-3.1217,5
2626,Saint-Valéry-en-Caux,49.8631,0.7069,4
2627,Genilac,45.5322,4.5817,8
2628,Bourgueil,47.2819,0.1683,10
2629,Celles-sur-Belle,46.2619,-0.2111,10
2630,Saint-Mard,49.0383,2.6953,7
2631,Saint-Palais-sur-Mer,45.6433,-1.0883,10
2632,Saint-Cézaire-sur-Siagne,43.6489,6.7928,0
2633,Montarnaud,43.6489,3.6989,11
2634,Vaulnaveys-le-Haut,45.1183,5.8103,8
2635,Saint-Aubin-du-Cormier,48.2594,-1.3986,4
2636,Nailloux,43.3558,1.6233,6
2637,Hasnon,50.4211,3.3867,1
2638,Albens,45.7864,5.945,8
2639,Thumeries,50.4789,3.055,1
2640,Pierrevert,43.8114,5.7494,0
2641,Suippes,49.13,4.5319,1
2642,Sochaux,47.5144,6.8314,3
2643,Forges-les-Bains,48.6281,2.0992,7
2644,Le Castellet,43.2028,5.7767,0
2645,Saint-Martin-en-Haut,45.6597,4.5617,8
2646,Le Cellier,47.3194,-1.3464,10
2647,Beauvoir-sur-Mer,46.9161,-2.0428,10
2648,Aubigny,46.5967,-1.4539,10
2649,Pleumeur-Bodou,48.7731,-3.5178,5
2650,Mozac,45.8939,3.095,2
2651,Créhange,49.0631,6.5819,3
2652,Mazères,43.2517,1.6781,6
2653,Seignosse,43.6892,-1.3728,9
2654,Juziers,48.9925,1.8456,7
2655,Fontaine-le-Comte,46.5289,0.2622,10
2656,Boos,49.3881,1.2031,7
2657,Lauris,43.7469,5.3133,11
2658,Allaire,47.6369,-2.1628,5
2659,Saint-Étienne-de-Tulmont,44.0478,1.4619,6
2660,Vaux-sur-Mer,45.645,-1.0603,10
2661,Ribérac,45.2469,0.3389,9
2662,Boissy-sous-Saint-Yon,48.5561,2.2094,7
2663,Bouxwiller,48.8253,7.4828,3
2664,Saint-Aubin-d’Aubigné,48.2622,-1.6061,5
2665,Le Val-d’Ajol,47.925,6.4833,3
2666,Saint-Hippolyte-du-Fort,43.9658,3.8558,11
2667,Arnas,46.0236,4.7083,8
2668,Oudon,47.3464,-1.2869,10
2669,Saint-Étienne-lès-Remiremont,48.0236,6.6044,3
2670,Montferrier-sur-Lez,43.6686,3.8572,11
2671,Le Bignon,47.0983,-1.4906,10
2672,Meyrargues,43.6356,5.5283,11
2673,Saint-Nolff,47.7036,-2.6517,5
2674,Loperhet,48.3747,-4.3053,5
2675,Bonnétable,48.1786,0.4256,4
2676,Guipry,47.8247,-1.8428,5
2677,Ardentes,46.7422,1.8308,2
2678,Villeveyrac,43.5011,3.6072,11
2679,Binic,48.6019,-2.8253,5
2680,Torreilles,42.755,2.9939,6
2681,Quévert,48.4636,-2.0872,5
2682,Verberie,49.3106,2.7314,7
2683,Réhon,49.5017,5.755,3
2684,Neuilly-en-Thelle,49.2236,2.2853,7
2685,Sospel,43.8769,7.4483,0
2686,Roeulx,50.3094,3.335,1
2687,Bapaume,50.1036,2.8511,1
2688,Lapalud,44.3044,4.6889,11
2689,Champagné,48.0228,0.3328,4
2690,Belleu,49.3589,3.3356,1
2691,Beaumont-lès-Valence,44.8619,4.9428,11
2692,Turckheim,48.0864,7.2806,3
2693,Jonquières-Saint-Vincent,43.8281,4.5633,11
2694,Forges-les-Eaux,49.6125,1.5447,7
2695,Le May-sur-Èvre,47.1353,-0.8928,10
2696,Quessoy,48.4211,-2.6583,5
2697,Saint-Fulgent,46.8523,-1.178,10
2698,Veigy,46.2719,6.2589,8
2699,Mortagne-au-Perche,48.5203,0.5472,4
2700,Fleury,43.2294,3.1344,6
2701,Plomeur,47.8403,-4.2847,5
2702,Salernes,43.5633,6.2339,0
2703,Gourin,48.1394,-3.6075,5
2704,Neuville-Saint-Rémy,50.1878,3.2222,1
2705,Pont-Scorff,47.8342,-3.4031,5
2706,Saint-Germain-du-Corbéis,48.4228,0.0619,4
2707,Saint-Martin-la-Plaine,45.5458,4.5928,8
2708,Le Vigan,43.9922,3.6056,11
2709,Plouvien,48.5294,-4.4528,5
2710,La Chaize-le-Vicomte,46.6722,-1.2925,10
2711,Lexy,49.5011,5.7322,3
2712,Plouarzel,48.4333,-4.7325,5
2713,Montmerle-sur-Saône,46.0814,4.7586,8
2714,Pipriac,47.8092,-1.9478,5
2715,La Croix-Valmer,43.2078,6.5681,0
2716,Chaingy,47.8836,1.7731,7
2717,Fléac,45.6653,0.0936,9
2718,Saint-Gildas-des-Bois,47.5164,-2.0383,5
2719,Boissise-le-Roi,48.5256,2.5742,7
2720,Rochechouart,45.8231,0.8208,2
2721,Meurchin,50.4972,2.8897,1
2722,Champagney,47.7058,6.6822,3
2723,Beaumont-de-Lomagne,43.8831,0.9883,6
2724,Moréac,47.9192,-2.8211,5
2725,Labastide-Saint-Pierre,43.9183,1.3678,6
2726,Saint-Clair-du-Rhône,45.44,4.7731,8
2727,La Destrousse,43.3764,5.6067,0
2728,Aubin,44.5278,2.2458,6
2729,Argences,49.1264,-0.1675,4
2730,Saint-Germain-sur-Morin,48.8825,2.8506,7
2731,Fay-aux-Loges,47.9289,2.1394,7
2732,Mondragon,44.2383,4.7128,11
2733,Étrépagny,49.3058,1.6114,7
2734,Montoire-sur-le-Loir,47.7542,0.8636,4
2735,Pélussin,45.4183,4.6808,8
2736,Sierentz,47.6556,7.4558,3
2737,La Rochette,48.5203,2.6558,7
2738,Estrées-Saint-Denis,49.4256,2.6428,7
2739,Erdeven,47.6422,-3.1567,5
2740,Dun-sur-Auron,46.8847,2.5717,2
2741,Replonges,46.3103,4.8861,8
2742,La Rochette,45.4586,6.1203,8
2743,Neufchâtel-Hardelot,50.6186,1.6408,1
2744,Servon-sur-Vilaine,48.1214,-1.4606,5
2745,Montreuil-Bellay,47.1314,-0.1536,10
2746,Les Mées,44.0294,5.9764,0
2747,Châteaubernard,45.6725,-0.3144,10
2748,Moncé-en-Belin,47.8947,0.1981,4
2749,Saint-Georges-d’Oléron,45.9786,-1.3331,10
2750,Morschwiller-le-Bas,47.7358,7.2706,3
2751,Pézilla-la-Rivière,42.6953,2.7706,6
2752,Blanzat,45.8297,3.0781,2
2753,Belz,47.6758,-3.17,5
2754,Garchizy,47.0472,3.0953,2
2755,Beaulieu-sur-Mer,43.7069,7.3314,0
2756,Cléder,48.6633,-4.1036,5
2757,La Ferté-Alais,48.4828,2.3486,7
2758,Cordemais,47.2903,-1.8789,10
2759,Étupes,47.5064,6.8611,3
2760,Lherm,43.43,1.2219,6
2761,Fraisses,45.3878,4.2661,8
2762,Violaines,50.5408,2.7889,1
2763,Milizac,48.4675,-4.5656,5
2764,Ploudaniel,48.5369,-4.3131,5
2765,Groisy,46.0183,6.1714,8
2766,Pont-de-Buis-lès-Quimerch,48.2544,-4.09,5
2767,Saint-Nicolas-d’Aliermont,49.8794,1.2203,7
2768,Sulniac,47.6756,-2.5717,5
2769,Coudoux,43.5578,5.2483,11
2770,Viviers,44.4828,4.6889,11
2771,Varades,47.3844,-1.03,10
2772,Mézières-sur-Seine,48.9581,1.8039,7
2773,Propriano,41.675,8.9042,0
2774,Tinténiac,48.3289,-1.8347,5
2775,Marzy,46.9808,3.0933,2
2776,Baugé,47.55,-0.1,10
2777,Gundershoffen,48.9056,7.6631,3
2778,Le Vaudreuil,49.2564,1.2056,7
2779,Chauffailles,46.2064,4.34,8
2780,Bressols,43.9681,1.3381,6
2781,Holtzheim,48.5586,7.6411,3
2782,Givry,46.7822,4.7431,8
2783,Audierne,48.0242,-4.5417,5
2784,Pannes,48.0189,2.6672,7
2785,Gétigné,47.0756,-1.2494,10
2786,Ferrières,48.0903,2.7897,7
2787,Richwiller,47.7792,7.2806,3
2788,Ézy-sur-Eure,48.8644,1.4197,7
2789,Gallardon,48.5247,1.69,7
2790,Vouillé,46.6406,0.1689,10
2791,Montry,48.8867,2.8278,7
2792,Saint-Symphorien-sur-Coise,45.6322,4.4572,8
2793,Ay,49.0553,4.0036,1
2794,Champhol,48.4686,1.5022,7
2795,Charlieu,46.1594,4.1719,8
2796,Saint-Maur,46.8064,1.6394,2
2797,Hérimoncourt,47.4406,6.8831,3
2798,Touques,49.3425,0.1019,4
2799,Petit-Mars,47.3942,-1.455,10
2800,Clamecy,47.46,3.5194,7
2801,Nogent-en-Bassigny,48.0294,5.3453,3
2802,Plémet,48.1778,-2.5936,5
2803,Alénya,42.6397,2.9817,6
2804,Steenwerck,50.7003,2.7775,1
2805,Danjoutin,47.6178,6.8639,3
2806,Éperlecques,50.8064,2.1517,1
2807,Gallargues-le-Montueux,43.7211,4.1728,11
2808,Bourgneuf-en-Retz,47.0431,-1.9528,10
2809,Montamisé,46.6211,0.4239,10
2810,Châteauneuf-du-Faou,48.1861,-3.8128,5
2811,Lectoure,43.9344,0.6211,9
2812,Pujols,44.3856,0.6883,9
2813,Prunelli-di-Fiumorbo,42.0106,9.3247,0
2814,Bouliac,44.815,-0.5019,9
2815,Peyrehorade,43.545,-1.1,9
2816,Hourtin,45.1861,-1.0575,9
2817,Pleyben,48.2261,-3.9694,5
2818,Houdan,48.7908,1.6017,7
2819,Saint-Germain-Laprade,45.0381,3.9692,11
2820,Bellac,46.1219,1.0494,2
2821,Saint-Éloy-les-Mines,46.1606,2.8339,2
2822,Sargé-lès-le-Mans,48.0336,0.2403,4
2823,Verson,49.155,-0.4525,4
2824,Saint-Georges-sur-Loire,47.4092,-0.7622,10
2825,Geneston,47.0556,-1.5128,10
2826,Limonest,45.8369,4.7719,8
2827,Labuissière,50.4897,2.5656,1
2828,Fay-de-Bretagne,47.415,-1.7914,10
2829,Châteauneuf-Grasse,43.675,6.975,0
2830,Pluméliau,47.9578,-2.9733,5
2831,Aime,45.5556,6.6486,8
2832,Saint-Genès-Champanelle,45.7203,3.0189,2
2833,La Bazoge,48.0986,0.1553,4
2834,Les Rousses,46.4858,6.0617,8
2835,Avesnes-lès-Aubert,50.1972,3.38,1
2836,Coulanges-lès-Nevers,47.0053,3.1867,2
2837,Ploubezre,48.7044,-3.4489,5
2838,Bergues,50.9686,2.4342,1
2839,Saint-Chef,45.6339,5.3658,8
2840,Longeville-lès-Saint-Avold,49.1161,6.6392,3
2841,Layrac,44.1342,0.6617,9
2842,Arsac,44.9969,-0.6886,9
2843,Bellignat,46.2447,5.6328,8
2844,Hussigny-Godbrange,49.4928,5.8742,3
2845,Contres,47.4189,1.4278,2
2846,Verfeil,43.6575,1.6608,6
2847,Bavans,47.4817,6.7306,3
2848,Objat,45.2631,1.4083,2
2849,Saint-Cergues,46.2358,6.3214,8
2850,Rocquencourt,48.8367,2.1108,7
2851,Cinq-Mars-la-Pile,47.3475,0.4617,10
2852,Le Plessis-Belleville,49.0967,2.7531,7
2853,Breteil,48.1453,-1.8986,5
2854,Saint-Laurent-sur-Sèvre,46.9586,-0.8931,10
2855,Noyal-Pontivy,48.0667,-2.8819,5
2856,Isigny-sur-Mer,49.3178,-1.1022,4
2857,Saint-Germain-des-Fossés,46.2069,3.4336,2
2858,Trébeurden,48.7694,-3.5681,5
2859,Cours,46.0994,4.3206,8
2860,Bailly,48.8414,2.0772,7
2861,Saint-Héand,45.5286,4.3728,8
2862,La Chapelle-Saint-Ursin,47.0625,2.325,2
2863,Varangéville,48.6339,6.3136,3
2864,Lumbres,50.7053,2.1206,1
2865,Domloup,48.0619,-1.5231,5
2866,Plestin-les-Grèves,48.6569,-3.6311,5
2867,Cabourg,49.2883,-0.1164,4
2868,Marcy-l’Étoile,45.7811,4.7061,8
2869,Neuvic,45.1006,0.4689,9
2870,Gelos,43.2833,-0.3711,9
2871,Saint-Vallier-de-Thiey,43.6989,6.8478,0
2872,Deauville-les-Bains,49.3592,0.0744,4
2873,Varennes-sur-Allier,46.3131,3.4014,2
2874,Saïx,43.5814,2.1842,6
2875,Chaniers,45.7181,-0.5572,10
2876,Bénodet,47.8767,-4.1128,5
2877,Montmirail,48.8708,3.5406,7
2878,Le Pont-de-Beauvoisin,45.5344,5.6664,8
2879,Saint-Léger-du-Bourg-Denis,49.4344,1.1506,7
2880,Rivery,49.9025,2.3269,1
2881,Doussard,45.7756,6.2206,8
2882,Langeac,45.1003,3.4942,11
2883,Villers-Semeuse,49.7394,4.7494,1
2884,Landéda,48.5869,-4.5717,5
2885,Fontvieille,43.7269,4.7089,11
2886,Fougerolles,47.8853,6.4028,3
2887,Hornaing,50.3678,3.3353,1
2888,Bourg-Blanc,48.4994,-4.505,5
2889,Montsoult,49.0714,2.3106,7
2890,Saint-Aunès,43.64,3.9653,11
2891,Le Breuil,46.7944,4.4833,8
2892,Commequiers,46.7628,-1.8372,10
2893,Villedieu-les-Poëles,48.8386,-1.2225,4
2894,Mauriac,45.2189,2.3336,2
2895,Flassans-sur-Issole,43.3686,6.2211,0
2896,Vals-les-Bains,44.6656,4.3661,11
2897,Échillais,45.8983,-0.9517,10
2898,Puiseux-en-France,49.0578,2.5003,7
2899,Saint-Jean-de-Moirans,45.3411,5.5822,8
2900,Étain,49.2128,5.6364,3
2901,Varennes-sur-Seine,48.3739,2.9233,7
2902,Châteauneuf-sur-Charente,45.5986,-0.0536,9
2903,Plouër-sur-Rance,48.5278,-2.0033,5
2904,Pont-de-l’Isère,45.0047,4.8667,11
2905,Laragne-Montéglin,44.315,5.8217,0
2906,Lizy-sur-Ourcq,49.0253,3.0219,7
2907,Cugand,47.0625,-1.2544,10
2908,Rieumes,43.4125,1.1178,6
2909,Chavagnes-en-Paillers,46.8922,-1.2528,10
2910,Orbey,48.1264,7.1608,3
2911,Rupt-sur-Moselle,47.9267,6.6628,3
2912,Melle,46.2219,-0.145,10
2913,Plobannalec,47.8233,-4.2297,5
2914,Crèvecoeur-le-Grand,49.6083,2.0781,7
2915,Salindres,44.1714,4.1578,11
2916,Bohars,48.4294,-4.5136,5
2917,Saint-Évarzec,47.9369,-4.0203,5
2918,Pradines,44.4789,1.4042,6
2919,Latresne,44.785,-0.4964,9
2920,Chanceaux-sur-Choisille,47.4708,0.7033,4
2921,Peynier,43.4469,5.6414,0
2922,Espaly-Saint-Marcel,45.0461,3.8594,11
2923,Moûtiers,45.485,6.5339,8
2924,Salses-le-Château,42.8328,2.9189,6
2925,Vic-Fezensac,43.7583,0.3033,9
2926,Saint-Ay,47.8581,1.7539,7
2927,Maure-de-Bretagne,47.8911,-1.9917,5
2928,Sainte-Catherine,50.3072,2.7631,1
2929,Montastruc-la-Conseillère,43.7175,1.5903,6
2930,Amélie-les-Bains-Palalda,42.4753,2.6719,6
2931,Saint-Laurent-d’Aigouze,43.6344,4.1956,11
2932,Puygouzon,43.8925,2.1697,6
2933,Frévent,50.2764,2.2881,1
2934,Les Lucs-sur-Boulogne,46.8439,-1.4936,10
2935,Derval,47.6675,-1.6714,10
